企业名称,登记状态,注册资本,所属区县,所属行业,江苏省企业地址,,经度,纬度,需求量,,
江苏元泰建材有限公司,存续,1200,金坛区,非金属矿物制品业,江苏省常州市金坛区尧塘工业园金武路18号,,119.660006,31.723457,1.73E-06,,
江苏瑞明新材料科技有限公司,存续,1000,金坛区,橡胶和塑料制品业,江苏省常州市金坛区尧塘镇亿晶路99号,,119.66377,31.72287,1.44E-06,,
常州市金坛汤庄电镀有限公司,存续,1500,金坛区,金属制品业,江苏省常州市金坛区亿晶路16号,,119.665141,31.723486,2.17E-06,,
莱克勒喷嘴系统（常州）有限公司,在业,3190,金坛区,通用设备制造业,江苏省常州市金坛区德城路99号,,119.597897,31.723247,4.61E-06,,
伊莎贝棱辉特（常州）电子科技有限公司,存续,4260,金坛区,电气机械和器材制造业,江苏省常州市金坛区鑫城大道2898号,,119.597897,31.723247,6.15E-06,,
江苏捷尔特智能家具有限公司,存续,1000,金坛区,家具制造业,江苏省常州市金坛区复兴南路18号,,119.641944,31.731463,1.44E-06,,
江苏澋润数控科技有限公司,存续,1000,金坛区,通用设备制造业,江苏省常州市金坛区珠山路19号,,119.597897,31.723247,1.44E-06,,
常州杰铭新材料科技有限公司,存续,1000,金坛区,橡胶和塑料制品业,江苏省常州市金坛区月湖北路33号,,119.597897,31.723247,1.44E-06,,
江苏顺源航空零部件有限公司,存续,3000,金坛区,铁路、船舶、航空航天和其他运输设备制造业,江苏省常州市金坛区云湖路56号,,119.661109,31.738793,4.33E-06,,
江苏傲润塑业科技有限公司,存续,2000,金坛区,橡胶和塑料制品业,江苏省常州市金坛区尧塘镇工业园区经十二路18号,,119.683044,31.710441,2.89E-06,,
江苏艾龙森汽车部件有限公司,存续,2600,金坛区,汽车制造业,江苏省常州市金坛区月湖北路39号,,119.597897,31.723247,3.75E-06,,
江苏好牧人塑业有限公司,存续,2000,金坛区,橡胶和塑料制品业,江苏省常州市金坛区尧塘镇工业园区经十二路18号,,119.683044,31.710441,2.89E-06,,
江苏宝弘塑业有限公司,存续,1000,金坛区,橡胶和塑料制品业,江苏省常州市金坛区尧塘镇工业区经十二路18号,,119.68259,31.709621,1.44E-06,,
江苏航锐科技有限公司,存续,1000,金坛区,铁路、船舶、航空航天和其他运输设备制造业,江苏省常州市金坛区珠山路17号,,119.597897,31.723247,1.44E-06,,
江苏悦马特机械科技有限公司,存续,1000,金坛区,通用设备制造业,江苏省常州市金坛区文景路6号,,119.597897,31.723247,1.44E-06,,
江苏宝财自动化装备有限公司,存续,1000,金坛区,仪器仪表制造业,江苏省常州市金坛区文景路1号,,119.597897,31.723247,1.44E-06,,
安格诺尔（江苏）智能电气有限公司,存续,3100,金坛区,电气机械和器材制造业,江苏省常州市金坛区尧塘镇亿晶路9号,,119.675535,31.722219,4.48E-06,,
常州拓浦照明科技有限公司,存续,1000,金坛区,电气机械和器材制造业,江苏省常州市金坛区尧塘镇亿晶路9号,,119.675535,31.722219,1.44E-06,,
江苏江南清洁能源研究院有限公司,存续,1000,金坛区,电气机械和器材制造业,江苏省常州市金坛区尧塘镇亿晶路9号,,119.675535,31.722219,1.44E-06,,
常州市远达塑业有限公司,存续,1000,金坛区,橡胶和塑料制品业,江苏省常州市金坛区尧塘镇亿晶路6-2号,,119.676015,31.723251,1.44E-06,,
江苏正发建筑新材料股份有限公司,存续,1000,金坛区,非金属矿物制品业,江苏省常州市金坛市尧塘镇工业园亿晶路2号,,119.677503,31.723257,1.44E-06,,
常州帝升重工机械有限公司,存续,1000,金坛区,通用设备制造业,江苏省常州市金坛区华城路1788号,,119.660315,31.744424,1.44E-06,,
常州莱克斯诺传动设备有限公司,存续,396553685,金坛区,通用设备制造业,江苏省常州市金坛区复兴路58号,,119.641392,31.739693,5.73E-01,,
常州易联电子科技有限公司,存续,2000,金坛区,电气机械和器材制造业,江苏省常州市金坛区华城路1668号3号楼,,119.654554,31.74475,2.89E-06,,
常州市金坛华南水泥制品有限公司,在业,1000,金坛区,非金属矿物制品业,江苏省常州市金坛经济开发区河头金尧河南侧东南庄48号,,119.595932,31.742802,1.44E-06,,
江苏乐乐照明科技发展有限公司,存续,4600,金坛区,电气机械和器材制造业,江苏省常州市金坛区经济开发区中兴路89号,,119.638918,31.739552,6.64E-06,,
常州常重机械有限公司,存续,1080,金坛区,通用设备制造业,江苏省金坛经济开发区中兴路89号,,119.638918,31.739552,1.56E-06,,
晶电信息材料（江苏）有限公司,存续,32538,金坛区,电气机械和器材制造业,江苏省常州市金坛经济开发区中兴路89号,,119.638918,31.739552,4.70E-05,,
江苏润宇门窗有限公司,存续,1000,金坛区,金属制品业,江苏省常州市金坛区中兴路89号,,119.638918,31.739552,1.44E-06,,
常州市豪迈机械制造有限公司,存续,1200,金坛区,通用设备制造业,江苏省常州市金坛经济开发区中兴路89号,,119.638918,31.739552,1.73E-06,,
常州冠荣新型包装材料有限公司,存续,1000,金坛区,橡胶和塑料制品业,江苏省常州市金坛区亿晶路198号,,119.631294,31.723327,1.44E-06,,
常州倍捷塑业科技有限公司,存续,1200,金坛区,橡胶和塑料制品业,江苏省常州市金坛区亿晶路198号,,119.631294,31.723327,1.73E-06,,
江苏齐梁轨道交通装备有限公司,存续,1000,金坛区,铁路、船舶、航空航天和其他运输设备制造业,江苏省常州市金坛区华城路1668号,,119.654357,31.747039,1.44E-06,,
凯斯宝玛五金科技（江苏）有限公司,存续,1491,金坛区,金属制品业,江苏省常州市金坛区华城路1668号,,119.654357,31.747039,2.15E-06,,
江苏吉宏自动化设备有限公司,存续,1000,金坛区,仪器仪表制造业,江苏省常州市金坛区华城路1668号,,119.654357,31.747039,1.44E-06,,
江苏鑫颢泰新材料有限公司,存续,1088,金坛区,金属制品业,江苏省常州市金坛区华城路1668号,,119.654357,31.747039,1.57E-06,,
常州九方润德新材料有限公司,存续,1000,金坛区,汽车制造业,江苏省常州市金坛区华城路1668号,,119.654357,31.747039,1.44E-06,,
吉地亚汽车系统（常州）有限公司,存续,3550,金坛区,汽车制造业,江苏省常州市金坛区华城路1668号,,119.654357,31.747039,5.13E-06,,
常州威可特新材料有限公司,存续,1914,金坛区,橡胶和塑料制品业,江苏省常州市金坛区华城路1668号,,119.654357,31.747039,2.76E-06,,
常州增材制造研究院有限公司,存续,1000,金坛区,橡胶和塑料制品业,江苏省常州市金坛区华城路1668号,,119.654357,31.747039,1.44E-06,,
江苏鸿硕工程塑料科技股份有限公司,存续,1000,金坛区,橡胶和塑料制品业,江苏省常州市金坛区华城路1668号,,119.654357,31.747039,1.44E-06,,
常州鸣阳精密材料有限公司,存续,3000,金坛区,非金属矿物制品业,江苏省常州市金坛区华城路1668号,,119.654357,31.747039,4.33E-06,,
江苏安田亚士达机械有限公司,存续,1000,金坛区,通用设备制造业,江苏省常州市金坛区华城路1668号,,119.654357,31.747039,1.44E-06,,
江苏双笑新能源科技有限公司,存续,1050,金坛区,汽车制造业,江苏省常州市金坛区华城路1668号,,119.654357,31.747039,1.52E-06,,
江苏灵湾特种陶瓷科技有限公司,存续,1000,金坛区,非金属矿物制品业,江苏省常州市金坛区华城路1668号,,119.654357,31.747039,1.44E-06,,
德锐福传动系统（常州）有限公司,存续,1000,金坛区,通用设备制造业,江苏省常州市金坛区华城路1668号,,119.654357,31.747039,1.44E-06,,
常州杰美德精密型材有限公司,存续,1000,金坛区,橡胶和塑料制品业,江苏省常州市金坛区华城路1668号,,119.654357,31.747039,1.44E-06,,
常州市金坛神湖机电有限公司,存续,3000,金坛区,通用设备制造业,江苏省常州市金坛区龙湖路39号,,119.657741,31.747212,4.33E-06,,
常州市国电聚龙电气技术有限公司,存续,1000,金坛区,电气机械和器材制造业,江苏省常州市金坛区南二环东路1699号,,119.631644,31.732682,1.44E-06,,
江苏科泰绝热新材料有限公司,存续,3530,金坛区,橡胶和塑料制品业,江苏省常州市金坛区南二环东路1698号,,119.631961,31.733129,5.10E-06,,
江苏新顺章机械有限公司,存续,1000,金坛区,通用设备制造业,江苏省常州市金坛经济开发区双龙路12号,,119.660644,31.747779,1.44E-06,,
常州市沃科科技有限公司,存续,2000,金坛区,橡胶和塑料制品业,江苏省常州市金坛区南二环东路1699号,,119.631644,31.732682,2.89E-06,,
常州市鑫辉网具有限公司,存续,1000,金坛区,金属制品业,江苏省常州市金坛区金胜东路236号,,119.654047,31.748113,1.44E-06,,
常州市易度电动科技有限公司,存续,2000,金坛区,铁路、船舶、航空航天和其他运输设备制造业,江苏省常州市金坛区金胜东路228号,,119.651949,31.748044,2.89E-06,,
江苏天广实业有限公司,存续,1088,金坛区,金属制品业,江苏省常州市金坛区金胜东路249号,,119.656467,31.748957,1.57E-06,,
江苏春立家具有限公司,存续,2000,金坛区,家具制造业,江苏省常州市金坛区金胜东路249号,,119.656467,31.748957,2.89E-06,,
江苏肇风机电设备有限公司,存续,1000,金坛区,电气机械和器材制造业,江苏省常州市金坛区兴华路167号,,119.666185,31.748072,1.44E-06,,
常州博瑞汽车电控科技有限公司,存续,1000,金坛区,汽车制造业,江苏省常州市金坛区汇福路666号,,119.647816,31.748123,1.44E-06,,
江苏缔成特材科技有限公司,存续,1000,金坛区,橡胶和塑料制品业,江苏省常州市金坛区金胜东路218号,,119.644918,31.747843,1.44E-06,,
常州瑞能铝业有限公司,存续,1000,金坛区,金属制品业,江苏省常州市金坛区金胜东路229号,,119.646499,31.748565,1.44E-06,,
常州市金坛技鼎精密机械有限公司,存续,1080,金坛区,通用设备制造业,江苏省常州市金坛区金胜东路219号,,119.645562,31.748298,1.56E-06,,
江苏中恒炉业有限公司,存续,1000,金坛区,通用设备制造业,江苏省常州市金坛区金胜东路216号,,119.642983,31.748049,1.44E-06,,
常州金坛卓亚汽车零部件有限公司,存续,1000,金坛区,汽车制造业,江苏省常州市金坛区复兴路98号,,119.640564,31.746742,1.44E-06,,
江苏麦森精密机械制造有限公司,存续,3000,金坛区,通用设备制造业,江苏省常州市金坛金胜东路216号,,119.642983,31.748049,4.33E-06,,
中悦汽车部件（江苏）有限公司,存续,3000,金坛区,汽车制造业,江苏省常州市金坛区龙湖路21号,,119.657387,31.752013,4.33E-06,,
江苏法沃克汽车零部件有限公司,存续,1276,金坛区,汽车制造业,江苏省常州市金坛区复兴路98号,,119.640564,31.746742,1.84E-06,,
江苏安特稳科技有限公司,存续,3518,金坛区,仪器仪表制造业,江苏省常州市金坛区尧塘集镇,,119.682838,31.71751,5.08E-06,,
常州瑞华新能源科技有限公司,在业,3000,金坛区,电气机械和器材制造业,江苏省常州市金坛区复兴路299号,,119.641153,31.747614,4.33E-06,,
常州嘉丰新材料有限公司,存续,1000,金坛区,橡胶和塑料制品业,江苏省常州市金坛区金胜东路215号,,119.629123,31.747367,1.44E-06,,
常州智宝能源科技有限公司,存续,1200,金坛区,汽车制造业,江苏省常州市金坛区金龙大道559号,,119.597897,31.723247,1.73E-06,,
江苏众蕾新型建材有限公司,存续,1000,金坛区,非金属矿物制品业,江苏省常州市金坛区河山环路35号,,119.654347,31.752486,1.44E-06,,
斯米伽（常州）精密制造有限公司,存续,2000,金坛区,仪器仪表制造业,江苏省常州市金坛区龙湖路45号,,119.657387,31.752013,2.89E-06,,
江苏恒成称重设备有限公司,存续,2000,金坛区,仪器仪表制造业,江苏省常州市金坛区龙湖路1号,,119.657387,31.752013,2.89E-06,,
江苏赛惠斯电器科技有限公司,存续,2000,金坛区,电气机械和器材制造业,江苏省常州市金坛区龙湖路17号,,119.657387,31.752013,2.89E-06,,
江苏喆瑞照明科技有限公司,存续,1380,金坛区,电气机械和器材制造业,江苏省常州市金坛区龙湖路15号,,119.657387,31.752013,1.99E-06,,
常州市金坛利云汽车电机有限公司,存续,3000,金坛区,汽车制造业,江苏省常州市金坛区龙湖路1号,,119.657387,31.752013,4.33E-06,,
江苏华苏工业炉制造有限公司,存续,1000,金坛区,通用设备制造业,江苏省常州市金坛区双龙路5号,,119.6606,31.751783,1.44E-06,,
江苏安利新型建材有限公司,存续,1000,金坛区,非金属矿物制品业,江苏省常州市金坛区河山环路35号,,119.654347,31.752486,1.44E-06,,
常州金坛塑料厂,存续,3600,金坛区,橡胶和塑料制品业,江苏省常州市金坛经济开发区复兴路96号,,119.639474,31.748164,5.20E-06,,
江苏常凯玻璃有限公司,存续,1000,金坛区,非金属矿物制品业,江苏省常州市金坛区河山环路36号,,119.654294,31.752664,1.44E-06,,
江苏大中传动设备有限公司,存续,1080,金坛区,通用设备制造业,江苏省常州市金坛区河山环路32号,,119.65472,31.75259,1.56E-06,,
司达磁电科技（常州）有限公司,存续,43065,金坛区,电气机械和器材制造业,江苏省常州市金坛区河山环路38号,,119.652799,31.754309,6.22E-05,,
江苏万泉金属制品有限公司,存续,1000,金坛区,金属制品业,江苏省常州市金坛区龙湖路10号,,119.656758,31.752896,1.44E-06,,
常州吉和智能家具有限公司,存续,1914,金坛区,家具制造业,江苏省常州市金坛区河山环路18号,,119.660604,31.753089,2.76E-06,,
常州市宝瑞汽车附件有限公司,存续,1000,金坛区,汽车制造业,江苏省常州市金坛区河山环路22号,,119.659104,31.753236,1.44E-06,,
常州市科慧汽车电器有限公司,存续,1080,金坛区,汽车制造业,江苏省常州市金坛区龙湖路10号,,119.656758,31.752896,1.56E-06,,
江苏尧塘花木市场有限公司,存续,3000,金坛区,非金属矿物制品业,江苏省常州市金坛区尧塘镇金武路8号,,119.623571,31.723254,4.33E-06,,
常州市朗科精密机械有限公司,存续,1000,金坛区,仪器仪表制造业,江苏省常州市金坛区华兴路201号,,119.643792,31.751512,1.44E-06,,
江苏慧码检测设备科技有限公司,存续,1000,金坛区,仪器仪表制造业,江苏省常州市金坛经济开发区华城路222号,,119.630055,31.742918,1.44E-06,,
江苏闪码检测设备科技有限公司,存续,1000,金坛区,仪器仪表制造业,江苏省常州市金坛经济开发区华城路222号,,119.630055,31.742918,1.44E-06,,
江苏瑞奥减速机械有限公司,存续,1000,金坛区,通用设备制造业,江苏省常州市金坛区华兴路206号,,119.642344,31.751225,1.44E-06,,
江苏朋逸高新材料科技有限公司,存续,3000,金坛区,橡胶和塑料制品业,江苏省常州市金坛区龙湖路8号,,119.656765,31.754343,4.33E-06,,
常州松马动力科技有限公司,存续,1500,金坛区,电气机械和器材制造业,江苏省常州市金坛区河山环路17号,,119.652799,31.754309,2.17E-06,,
常州万诚机械科技有限公司,存续,1200,金坛区,通用设备制造业,江苏省常州市金坛区河山环路15号,,119.652799,31.754309,1.73E-06,,
江苏德朗尼工业自动化有限公司,存续,1000,金坛区,通用设备制造业,江苏省常州市金坛区经济开发区河山环路10号,,119.655396,31.754824,1.44E-06,,
常州双亿自动化科技有限公司,存续,1000,金坛区,仪器仪表制造业,江苏省常州市金坛区河山环路6号,,119.654087,31.754826,1.44E-06,,
江苏一博自动化设备有限公司,存续,1000,金坛区,仪器仪表制造业,江苏省常州市金坛区河山环路7号,,119.652799,31.754309,1.44E-06,,
常州市金坛安达交通设施有限公司,在业,3000,金坛区,铁路、船舶、航空航天和其他运输设备制造业,江苏省常州市金坛经济开发区华兴路168号,,119.637819,31.750644,4.33E-06,,
江苏鑫怡电力设备有限公司,存续,3080,金坛区,电气机械和器材制造业,江苏省常州市金坛区金胜东路198号,,119.633077,31.747743,4.45E-06,,
江苏牛创新能源汽车有限公司,存续,1000,金坛区,汽车制造业,江苏省常州市金坛区金龙大道563号1栋,,119.597897,31.723247,1.44E-06,,
常州益鑫新能源科技有限公司,存续,2800,金坛区,非金属矿物制品业,江苏省常州市金坛经济开发区华城路266号,,119.627777,31.742793,4.04E-06,,
常州辉思特电子科技有限公司,存续,1000,金坛区,汽车制造业,江苏省常州市金坛区金龙大道563号,,119.597897,31.723247,1.44E-06,,
江苏铂联新能源科技有限公司,存续,2000,金坛区,汽车制造业,江苏省常州市金坛区金龙大道563号,,119.597897,31.723247,2.89E-06,,
江苏保宏金属科技有限公司,存续,1000,金坛区,汽车制造业,江苏省常州市金坛区龙湖路2号,,119.656443,31.755155,1.44E-06,,
常州市浩哲科技有限公司,存续,1000,金坛区,汽车制造业,江苏省常州市金坛区金龙大道559号,,119.597897,31.723247,1.44E-06,,
常州凯度机电有限公司,存续,2000,金坛区,电气机械和器材制造业,江苏省常州市金坛区华城路286号,,119.626483,31.742725,2.89E-06,,
常州杰德电力器材有限公司,存续,1000,金坛区,电气机械和器材制造业,江苏省常州市金坛区华丰路158号,,119.63295,31.749102,1.44E-06,,
常州市赛尔交通器材有限公司,存续,10944,金坛区,汽车制造业,江苏省常州市金坛经济开发区中兴路81号,,119.628161,31.745964,1.58E-05,,
常州金坛万昌刀具制造有限公司,存续,3617864587,金坛区,金属制品业,江苏省常州市金坛经济开发区中兴路56号,,119.62883,31.745879,5.22E+00,,
江苏中旺门窗幕墙有限公司,存续,2000,金坛区,金属制品业,江苏省常州市金坛区华丰路100号,,119.631544,31.748533,2.89E-06,,
江苏久标全屋定制有限公司,存续,1000,金坛区,家具制造业,江苏省常州市金坛经济开发区中兴路56号,,119.62883,31.745879,1.44E-06,,
常州市金坛区华康家具有限公司,存续,2080,金坛区,家具制造业,江苏省常州市金坛区华兴路133号,,119.63477,31.751114,3.00E-06,,
江苏广锐金属制造有限公司,存续,1068,金坛区,金属制品业,江苏省常州市金坛经济开发区晨风东路666号,,119.656679,31.757358,1.54E-06,,
常州昊虹汽车配件有限公司,存续,2000,金坛区,汽车制造业,江苏省常州市金坛区金胜东路233号,,119.629123,31.747367,2.89E-06,,
江苏宏鑫索马传动科技股份有限公司,存续,1000,金坛区,汽车制造业,江苏省常州市金坛区明湖路359号,,119.633992,31.698004,1.44E-06,,
常州艾嵘车辆部件有限公司,存续,1000,金坛区,铁路、船舶、航空航天和其他运输设备制造业,江苏省常州市金坛区明湖路359号,,119.633992,31.698004,1.44E-06,,
江苏盘毂新能源科技有限公司,存续,1000,金坛区,汽车制造业,江苏省常州市金坛区明湖路359号,,119.633992,31.698004,1.44E-06,,
江苏鑫田电子科技有限公司,存续,3000,金坛区,电气机械和器材制造业,江苏省常州市金坛区中兴路79号,,119.628111,31.746632,4.33E-06,,
江苏腾沅机械科技有限公司,在业,1000,金坛区,铁路、船舶、航空航天和其他运输设备制造业,江苏省常州市金坛经济开发区华丰路116号,,119.630555,31.748977,1.44E-06,,
江苏晶众机电有限公司,存续,1000,金坛区,电气机械和器材制造业,江苏省常州市金坛经济开发区华城路288-1号2幢1号,,119.624144,31.742566,1.44E-06,,
江苏恒瑞净化工程设备有限公司,存续,1000,金坛区,通用设备制造业,江苏省常州市金坛区华城路288-1号浚博小微企业园6-3号,,119.624144,31.742566,1.44E-06,,
江苏中迪新材料技术有限公司,存续,1000,金坛区,橡胶和塑料制品业,江苏省常州市金坛区华业路139号,,119.635303,31.689399,1.44E-06,,
江苏中煜橡塑科技有限公司,存续,1000,金坛区,橡胶和塑料制品业,江苏省常州市金坛区华业路139号,,119.635303,31.689399,1.44E-06,,
常州永凯机械制造有限公司,存续,2380,金坛区,通用设备制造业,江苏省常州市金坛经济开发区华兴路116号,,119.63231,31.751023,3.44E-06,,
江苏守仁汽车电子科技有限责任公司,存续,1000,金坛区,汽车制造业,江苏省常州市金坛区尧塘街道明湖路359号,,119.633992,31.698004,1.44E-06,,
江苏耀达智造科技有限公司,存续,1000,金坛区,汽车制造业,江苏省常州市金坛经济开发区明湖路365号,,119.633992,31.698004,1.44E-06,,
常州市华永车辆科技有限公司,存续,1000,金坛区,汽车制造业,江苏省常州市金坛区明湖路359号,,119.633992,31.698004,1.44E-06,,
江苏福亿自动化设备有限公司,存续,2350,金坛区,电气机械和器材制造业,江苏省常州市金坛区华兴路211号,,119.631184,31.750804,3.39E-06,,
常州金坛恒发机械配件有限公司,存续,1000,金坛区,通用设备制造业,江苏省常州市金坛区华兴路216号,,119.631184,31.750804,1.44E-06,,
常州崴特环境科技有限公司,存续,1000,金坛区,仪器仪表制造业,江苏省常州市金坛区华兴路150号,,119.630839,31.750614,1.44E-06,,
常州玄武动力机械有限公司,存续,3654760742,金坛区,汽车制造业,江苏省常州市金坛区晨风路889号,,119.634994,31.754057,5.28E+00,,
江苏罗纳尔多仪器制造有限公司,存续,1000,金坛区,仪器仪表制造业,江苏省常州市金坛区金胜东路88号,,119.625522,31.747375,1.44E-06,,
江苏迪迈新材料有限公司,存续,2000,金坛区,橡胶和塑料制品业,江苏省常州市金坛区兴明路26号,,119.645896,31.758567,2.89E-06,,
常州市金坛区华宇电力器材有限公司,存续,1000,金坛区,电气机械和器材制造业,江苏省常州市金坛区金胜东路68号,,119.624728,31.747321,1.44E-06,,
江苏世博新能源装备有限公司,存续,1000,金坛区,汽车制造业,江苏省常州市金坛区兴明西路59号15号楼,,119.597897,31.723247,1.44E-06,,
泰宇新能源材料（常州）有限公司,存续,1000,金坛区,电气机械和器材制造业,江苏省常州市金坛区金龙大道563号4号厂房,,119.597897,31.723247,1.44E-06,,
凯翔汽车装备（常州）有限公司,存续,1000,金坛区,汽车制造业,江苏省常州市金坛区晨风路869号,,119.630516,31.7537,1.44E-06,,
常州市合创智能科技有限公司,存续,2000,金坛区,仪器仪表制造业,江苏省常州市金坛区华丰路18号,,119.62389,31.748251,2.89E-06,,
常州金坛金木工程仪器厂,存续,1000,金坛区,仪器仪表制造业,江苏省常州市金坛区华丰路16号,,119.623639,31.748614,1.44E-06,,
常州宇胜土木工程仪器有限公司,存续,1000,金坛区,仪器仪表制造业,江苏省常州市金坛经济开发区华丰路16号,,119.623639,31.748614,1.44E-06,,
江苏杰瑞尔电器有限公司,存续,1000,金坛区,电气机械和器材制造业,江苏省常州市金坛区华兴路16号,,119.625801,31.750665,1.44E-06,,
常州市金坛常达金属构件有限公司,存续,3000,金坛区,金属制品业,江苏省常州市金坛经济开发区中兴路38号,,119.62821,31.753363,4.33E-06,,
常州贞和汽车零部件有限公司,存续,1276,金坛区,汽车制造业,江苏省常州市金坛区兴明西路59号,,119.597897,31.723247,1.84E-06,,
常州柏嘉机械加工有限公司,在业,1000,金坛区,通用设备制造业,江苏省常州市金坛区兴河东路56号,,119.647552,31.761487,1.44E-06,,
常州市东洋橡塑新材料有限公司,存续,1000,金坛区,橡胶和塑料制品业,江苏省常州市金坛区华丰路68号,,119.622985,31.748589,1.44E-06,,
常州市鑫愉宝传动部件有限公司,存续,1000,金坛区,通用设备制造业,江苏省常州市金坛区恒泰路1号,,119.631062,31.755512,1.44E-06,,
江苏峨嵋动力机械有限公司,存续,2780,金坛区,通用设备制造业,江苏省常州市金坛区金胜东路28号,,119.621041,31.746759,4.01E-06,,
常州长溢精机有限公司,存续,3828,金坛区,铁路、船舶、航空航天和其他运输设备制造业,江苏省金坛经济开发区汇福路9号,,119.649592,31.761938,5.53E-06,,
常州沃克光电仪器有限公司,存续,1000,金坛区,仪器仪表制造业,江苏省常州市金坛区兴明西路101号,,119.597897,31.723247,1.44E-06,,
常州集友电子科技有限公司,存续,1000,金坛区,橡胶和塑料制品业,江苏省常州市金坛区金湖路29号,,119.619791,31.745455,1.44E-06,,
常州瑞诺车辆部件有限公司,存续,1200,金坛区,汽车制造业,江苏省常州市金坛区恒泰路6号,,119.631062,31.755512,1.73E-06,,
江苏格罗博电气有限公司,存续,32798,金坛区,电气机械和器材制造业,江苏省常州市金坛区恒泰路2号,,119.631062,31.755512,4.74E-05,,
常州市奥亚油泵油嘴有限公司,存续,1000,金坛区,汽车制造业,江苏省常州市金坛区恒泰路5号,,119.631062,31.755512,1.44E-06,,
江苏斯克特工业科技有限公司,存续,1000,金坛区,通用设备制造业,江苏省常州市金坛区恒泰路10号,,119.631062,31.755512,1.44E-06,,
江苏和立工程材料有限公司,存续,3009,金坛区,非金属矿物制品业,江苏省常州市金坛区汇福路10号,,119.649128,31.761959,4.35E-06,,
江苏极研模块建筑有限公司,存续,1200,金坛区,金属制品业,江苏省常州市金坛区复兴路7号,,119.640219,31.759867,1.73E-06,,
常州华英博传动机械有限公司,存续,1500,金坛区,通用设备制造业,江苏省常州市金坛区兴隆北路10号,,119.654925,31.76283,2.17E-06,,
常州天益遮阳窗饰有限公司,存续,4200,金坛区,金属制品业,江苏省常州市金坛开发区恒泰路8号,,119.631062,31.755512,6.07E-06,,
江苏嘉源丰机械制造有限公司,存续,1000,金坛区,电气机械和器材制造业,江苏省常州市金坛区汇华路003号,,119.644077,31.761481,1.44E-06,,
江苏文天长液压有限公司,存续,1000,金坛区,通用设备制造业,江苏省常州市金坛区恒泰路9号,,119.631062,31.755512,1.44E-06,,
常州鑫坛电力成套设备有限公司,存续,2800,金坛区,电气机械和器材制造业,江苏省常州市金坛区华丰路6号,,119.620722,31.748462,4.04E-06,,
常州市金坛永全电控设备厂,存续,1040,金坛区,电气机械和器材制造业,江苏省常州市金坛区尧塘镇汤庄集镇北,,119.685314,31.69627,1.50E-06,,
常州德博新材料科技有限公司,存续,1000,金坛区,橡胶和塑料制品业,江苏省常州市金坛经济开发区华丰路2号,,119.620465,31.748441,1.44E-06,,
常州银登金属制品有限公司,存续,1000,金坛区,金属制品业,江苏省常州市金坛区复兴路8号,,119.639416,31.760816,1.44E-06,,
康诚（江苏）机械制造有限公司,存续,1000,金坛区,通用设备制造业,江苏省常州市金坛区经济开发区华电路8号,,119.622188,31.750554,1.44E-06,,
江苏润德精密机械有限公司,存续,1280,金坛区,通用设备制造业,江苏省常州市金坛经济开发区汇福路9号,,119.649592,31.761938,1.85E-06,,
常州申嘉金属制品有限公司,存续,1500,金坛区,金属制品业,江苏省常州市金坛区兴辰路8号,,119.597897,31.723247,2.17E-06,,
常州市长江电力机械厂有限公司,存续,1500,金坛区,电气机械和器材制造业,江苏省常州市金坛区兴辰路10号,,119.597897,31.723247,2.17E-06,,
华星动力（江苏）有限公司,存续,2000,金坛区,汽车制造业,江苏省常州市金坛区明湖路399号,,119.634616,31.690418,2.89E-06,,
常州铭策机械制造有限公司,存续,1000,金坛区,通用设备制造业,江苏省常州市金坛区明湖路399号,,119.634616,31.690418,1.44E-06,,
斐瑞博机械江苏有限公司,存续,1000,金坛区,通用设备制造业,江苏省常州市金坛经济开发区中塘桥48号,,119.635873,31.760834,1.44E-06,,
常州天易新能源有限公司,存续,1000,金坛区,汽车制造业,江苏省常州市金坛区复兴路3-6号,,119.64,31.762406,1.44E-06,,
常州中迪材料科技有限公司,存续,1000,金坛区,橡胶和塑料制品业,江苏省常州市金坛区华业路139号,,119.635303,31.689399,1.44E-06,,
中成（江苏）集成房屋科技有限公司,存续,1000,金坛区,金属制品业,江苏省常州市金坛区汇贤南路2号C幢,,119.6121,31.739571,1.44E-06,,
常州市金坛区博祥建筑材料有限公司,存续,1000,金坛区,非金属矿物制品业,江苏省常州市金坛区汇福路2号,,119.64861,31.76533,1.44E-06,,
常州市哈里路亚户外用品有限公司,存续,2000,金坛区,金属制品业,江苏省常州市金坛区河头镇薛庄村,,119.646112,31.765408,2.89E-06,,
江苏中谨精密机械有限公司,存续,1000,金坛区,通用设备制造业,江苏省常州市金坛区汇贤南路3号物管楼,,119.611667,31.740208,1.44E-06,,
艾贝思车辆科技（常州）有限公司,存续,1000,金坛区,汽车制造业,江苏省常州市金坛区汇贤南路3号物管楼,,119.611667,31.740208,1.44E-06,,
江苏库玛新材料有限公司,存续,3000,金坛区,汽车制造业,江苏省常州市金坛经济开发区兴华路048号,,119.644618,31.765142,4.33E-06,,
常州市金坛大网微滴灌设备有限公司,存续,1000,金坛区,通用设备制造业,江苏省常州市金坛区尧塘镇汤庄西大街62号,,119.681636,31.690341,1.44E-06,,
江苏锋怡精密工具有限公司,存续,1000,金坛区,金属制品业,江苏省常州市金坛经济开发区兴隆北路16-1号,,119.652586,31.766792,1.44E-06,,
江苏凯灵汽车电器有限公司,存续,1000,金坛区,汽车制造业,江苏省常州市金坛经济开发区金胜东路8号,,119.613292,31.746765,1.44E-06,,
常州金坛申路交通设施有限公司,在业,1550,金坛区,金属制品业,江苏省常州市金坛区汤庄集镇东大街1号,,119.687052,31.690512,2.24E-06,,
江苏益昇新能源科技有限公司,存续,1000,金坛区,电气机械和器材制造业,江苏省常州市金坛经济开发区汇贤中路89号,,119.611626,31.748337,1.44E-06,,
常州市怡和金属制品有限公司,存续,1000,金坛区,金属制品业,江苏省常州市金坛区尧塘镇汤庄沿河西路70号,,119.686959,31.689235,1.44E-06,,
常州市三洋精密制版有限公司,存续,1000,金坛区,金属制品业,江苏省常州市金坛区汇贤中路58号,,119.611139,31.7483,1.44E-06,,
常州坤锐能源科技有限公司,在业,3000,金坛区,汽车制造业,江苏省常州市金坛区直溪镇直溪集镇振兴南路63号,,119.456512,31.80021,4.33E-06,,
江苏金仕威光电科技有限公司,存续,3000,金坛区,电气机械和器材制造业,江苏省常州市金坛区直溪镇振兴南路123号,,119.456203,31.799624,4.33E-06,,
常州溪博汽车科技股份有限公司,存续,1000,金坛区,汽车制造业,江苏省常州市金坛区直溪镇工业集中区亚溪路29号,,119.454425,31.793607,1.44E-06,,
常州市金坛润泽新型建材有限公司,存续,1500,金坛区,非金属矿物制品业,江苏省常州市金坛区薛埠镇下杖村委镇茅路1号,,119.417249,31.790597,2.17E-06,,
江苏金阳玻璃制品有限公司,存续,1000,金坛区,非金属矿物制品业,江苏省常州市金坛区直溪镇工业集中区直茅路6号,,119.449766,31.788248,1.44E-06,,
江苏品川新能源科技有限公司,存续,1000,金坛区,汽车制造业,江苏省常州市金坛区直溪镇工业集中区亚细路16号,,119.461541,31.793149,1.44E-06,,
常州市金坛区丰捷电力科技有限公司,存续,1500,金坛区,电气机械和器材制造业,江苏省常州市金坛区直溪镇工业集中区振兴南路1号,,119.455663,31.788919,2.17E-06,,
江苏常州泰开新能源科技有限公司,存续,1000,金坛区,汽车制造业,江苏省常州市金坛区直溪镇工业集中区横三路88号,,119.45482,31.788515,1.44E-06,,
江苏溪源汽车科技有限公司,存续,1000,金坛区,汽车制造业,江苏省常州市金坛区直溪工业集中区直东路8号,,119.454873,31.788488,1.44E-06,,
江苏正晖照明科技有限公司,存续,2000,金坛区,电气机械和器材制造业,江苏省常州市金坛区直溪镇工业集中区1号,,119.45433,31.795067,2.89E-06,,
江苏维旺达光伏设备科技有限公司,存续,1000,金坛区,电气机械和器材制造业,江苏省常州市金坛区直溪镇工业集中区横四路18号,,119.45433,31.795067,1.44E-06,,
常州市金坛如胜汽车零部件有限公司,存续,1000,金坛区,汽车制造业,江苏省常州市金坛区直溪镇工业集中区西直里路9号,,119.45433,31.795067,1.44E-06,,
江苏沐春智能科技有限公司,存续,1000,金坛区,汽车制造业,江苏省常州市金坛区西直里路9号,,119.597897,31.723247,1.44E-06,,
江苏广豪佳工业设备有限公司,存续,1000,金坛区,通用设备制造业,江苏省常州市金坛区直溪镇工业集中区西直里路6号,,119.45433,31.795067,1.44E-06,,
易合城邦传动设备制造（江苏）有限公司,存续,1000,金坛区,通用设备制造业,江苏省常州市金坛区直溪镇工业集中区兴业大道5号,,119.46672,31.785212,1.44E-06,,
江苏圣鑫光伏科技有限公司,存续,2720,金坛区,电气机械和器材制造业,江苏省常州市金坛区直溪镇工业集中区直东路188号,,119.463915,31.789153,3.93E-06,,
江苏登兴塑化有限公司,存续,15065,金坛区,橡胶和塑料制品业,江苏省常州市金坛区建昌镇井庄村,,119.483408,31.829865,2.18E-05,,
江苏凯兴管道有限公司,存续,1000,金坛区,橡胶和塑料制品业,江苏省常州市金坛区直溪镇井庄村委张家棚188号,,119.483406,31.829866,1.44E-06,,
常州瑞通光伏设备有限公司,存续,1500,金坛区,电气机械和器材制造业,江苏省常州市金坛区直溪镇工业园区兴业大道17号,,119.46672,31.785212,2.17E-06,,
江苏松上电机有限公司,存续,1000,金坛区,电气机械和器材制造业,江苏省常州市金坛区直溪镇工业集中区兴业大道5号,,119.46672,31.785212,1.44E-06,,
常州市盛科汽车配件有限公司,存续,1000,金坛区,汽车制造业,江苏省常州市金坛区直溪镇工业集中区兴业大道1号,,119.46672,31.785212,1.44E-06,,
江苏吉丰自动化设备有限公司,存续,1000,金坛区,通用设备制造业,江苏省常州市金坛区直溪镇工业集中区兴业大道6号,,119.46672,31.785212,1.44E-06,,
常州市兴佳诚汽车部件有限公司,存续,1000,金坛区,汽车制造业,江苏省常州市金坛区直溪镇兴业大道88-1号,,119.46672,31.785212,1.44E-06,,
常州米特汽车零部件有限公司,存续,1000,金坛区,汽车制造业,江苏省常州市金坛区直溪镇工业集中区兴业大道3号,,119.46672,31.785212,1.44E-06,,
江苏君达钢结构有限公司,存续,1000,金坛区,金属制品业,江苏省常州市金坛区直溪镇工业集中区直里路16号,,119.46018,31.781849,1.44E-06,,
常州金坛超创电池有限公司,存续,1500,金坛区,电气机械和器材制造业,江苏省常州市金坛区茅麓镇西阳村,,119.382001,31.834086,2.17E-06,,
江苏天冀输送机械有限公司,存续,1000,金坛区,通用设备制造业,江苏省常州市金坛区直溪镇工业集中区东直里路68号,,119.46472,31.782798,1.44E-06,,
常州市金坛区厚松园园林绿化有限公司,存续,1000,金坛区,非金属矿物制品业,江苏省常州市金坛区薛埠镇石马村花茅路8公里处高架桥东侧,,119.401783,31.785121,1.44E-06,,
江苏思耐尔传动科技有限公司,存续,2000,金坛区,电气机械和器材制造业,江苏省常州市金坛区直溪镇工业园区水南路18号,,119.458843,31.777019,2.89E-06,,
江苏永易智能停车设备有限公司,存续,1000,金坛区,汽车制造业,江苏省常州市金坛区直溪镇工业园区水南路8号,,119.458843,31.777019,1.44E-06,,
江苏海尚汽车科技有限公司,存续,2000,金坛区,汽车制造业,江苏省常州市金坛区直溪镇工业园区水南路8号,,119.458843,31.777019,2.89E-06,,
常州清威汽车制造技术有限公司,在业,1000,金坛区,汽车制造业,江苏省常州市金坛区直溪镇工业集中区水南路8号,,119.458843,31.777019,1.44E-06,,
常州汉维机械设备有限公司,存续,1000,金坛区,通用设备制造业,江苏省常州市金坛区直溪镇工业园区水南路18号,,119.458843,31.777019,1.44E-06,,
常州顺合鼎建筑材料有限公司,存续,1000,金坛区,非金属矿物制品业,江苏省常州市金坛区薛埠镇西旸村青阳南路7号,,119.382001,31.834086,1.44E-06,,
常州祥德机械制造有限公司,存续,1200,金坛区,通用设备制造业,江苏省常州市金坛区薛埠镇白乾路1号,,119.380722,31.829647,1.73E-06,,
科升普力汽车科技（江苏）有限公司,存续,1000,金坛区,汽车制造业,江苏省常州市金坛区金湖北路55号,,119.597897,31.723247,1.44E-06,,
常州市金鹿电缆材料有限公司,存续,1580,金坛区,橡胶和塑料制品业,江苏省常州市金坛区茅麓茶场,,119.393703,31.788432,2.28E-06,,
江苏吉祥吉艺新型幕墙材料有限公司,存续,1000,金坛区,金属制品业,江苏省常州市金坛区薛埠镇石马村致和路10号,,119.401783,31.785121,1.44E-06,,
江苏云烽燃气设备有限公司,存续,2000,金坛区,仪器仪表制造业,江苏省常州市金坛区直溪镇建昌集镇育才路1号,,119.501919,31.821706,2.89E-06,,
江苏科远建材有限公司,存续,1000,金坛区,非金属矿物制品业,江苏省常州市金坛区直溪镇马脚山,,119.457175,31.768286,1.44E-06,,
常州市金坛林泉建材厂,存续,1000,金坛区,非金属矿物制品业,江苏省常州市金坛区朱林镇巷头村,,119.458998,31.758904,1.44E-06,,
常州市金坛创新建材有限公司,存续,3000,金坛区,非金属矿物制品业,江苏省常州市金坛区薛埠镇对达村,,119.363477,31.825771,4.33E-06,,
常州市金诺金属设备科技有限公司,存续,3088,金坛区,金属制品业,江苏省常州市金坛区薛埠镇花山村河口街58号,,119.420649,31.752409,4.46E-06,,
常州花山化工有限公司,存续,1018,金坛区,橡胶和塑料制品业,江苏省常州市金坛区薛埠镇河口集镇118号,,119.382381,31.717564,1.47E-06,,
江苏金动动力机械有限公司,存续,1000,金坛区,通用设备制造业,江苏省常州市金坛区金西工业园朱延路1号,,119.458223,31.743045,1.44E-06,,
常州市金坛耐思得自行车有限公司,存续,2000,金坛区,铁路、船舶、航空航天和其他运输设备制造业,江苏省常州市金坛区金西工业园118号,,119.597897,31.723247,2.89E-06,,
常州市金淮建材有限公司,存续,1000,金坛区,非金属矿物制品业,江苏省常州市金坛区朱林镇朱林村山城88号,,119.453625,31.737174,1.44E-06,,
常州市成林建材有限公司,存续,1000,金坛区,非金属矿物制品业,江苏省常州市金坛区朱林镇朱林村委巷头村68号,,119.453625,31.737174,1.44E-06,,
常州辉友金属材料有限公司,存续,1300,金坛区,金属制品业,江苏省常州市金坛区朱林镇创业路77号,,119.444388,31.735701,1.88E-06,,
江苏羽翼铸造有限公司,存续,1500,金坛区,金属制品业,江苏省常州市金坛区朱林镇金西工业园创业路55号,,119.444388,31.735701,2.17E-06,,
江苏天鑫机械科技有限公司,存续,2000,金坛区,通用设备制造业,江苏省常州市金坛区金西工业园创业路88号,,119.435219,31.734711,2.89E-06,,
常州市金坛圣通路面集料有限公司,存续,2000,金坛区,非金属矿物制品业,江苏省常州市金坛区薛埠镇九江口(常溧公路旁),,119.418072,31.734878,2.89E-06,,
常州银丰电力装备有限公司,存续,2000,金坛区,电气机械和器材制造业,江苏省常州市金坛区金西工业园22号,,119.597897,31.723247,2.89E-06,,
常州市金坛隆宇机械有限公司,存续,1000,金坛区,通用设备制造业,江苏省常州市金坛区朱林镇长兴工业园区158号,,119.464741,31.737637,1.44E-06,,
常州市旺达变压器有限公司,存续,1520,金坛区,电气机械和器材制造业,江苏省常州市金坛区朱林镇工业集中区168号,,119.464741,31.737637,2.20E-06,,
江苏法勒卫浴有限公司,存续,1000,金坛区,金属制品业,江苏省常州市金坛区朱林永兴路68号,,119.463451,31.738925,1.44E-06,,
江苏成业地效翼船有限公司,存续,1700,金坛区,铁路、船舶、航空航天和其他运输设备制造业,江苏省常州市金坛区朱林镇长兴工业园区19号,,119.464741,31.737637,2.45E-06,,
常州麦丽素交通科技有限公司,存续,1000,金坛区,汽车制造业,江苏省常州市金坛区朱林镇龙溪大道199号,,119.439136,31.730651,1.44E-06,,
江苏华达玻璃有限公司,存续,1700,金坛区,非金属矿物制品业,江苏省常州市金坛区朱林镇工业集中区69号,,119.464741,31.737637,2.45E-06,,
江苏路强智慧交通科技有限公司,存续,4500,金坛区,汽车制造业,江苏省常州市金坛区朱林镇龙溪大道99-2号,,119.446206,31.730583,6.50E-06,,
江苏梓源汽车科技有限公司,存续,3000,金坛区,汽车制造业,江苏省常州市金坛区朱林镇龙溪大道99-8号,,119.446206,31.730583,4.33E-06,,
常州品禾金属制品有限公司,存续,1500,金坛区,金属制品业,江苏省常州市金坛区朱林镇龙溪大道99号,,119.446206,31.730583,2.17E-06,,
江苏恒鼎汽车科技有限公司,存续,3000,金坛区,汽车制造业,江苏省常州市金坛区朱林镇龙溪大道99-8号,,119.446206,31.730583,4.33E-06,,
江苏鹤鸿汽车科技有限公司,存续,3000,金坛区,汽车制造业,江苏省常州市金坛区朱林镇龙溪大道219号,,119.43998,31.730152,4.33E-06,,
凯明（常州）新材料科技有限公司,存续,1500,金坛区,汽车制造业,江苏省常州市金坛区朱林镇龙溪大道209号,,119.43998,31.730152,2.17E-06,,
常州蒙利瑞电工材料有限公司,存续,1000,金坛区,电气机械和器材制造业,江苏省常州市金坛区朱林镇龙溪大道277号,,119.43388,31.730015,1.44E-06,,
江苏英格尔减速机有限公司,存续,1000,金坛区,通用设备制造业,江苏省常州市金坛区朱林镇红旗圩村委东坵桥505-46号,,119.468707,31.734207,1.44E-06,,
常州市金坛区吴氏建材有限公司,存续,1000,金坛区,非金属矿物制品业,江苏省常州市金坛区薛埠镇花山村208号,,119.414466,31.731045,1.44E-06,,
金坛市金山汽车配件有限公司,存续,1000,金坛区,汽车制造业,江苏省金坛市薛埠镇花山村柳庄151号,,118.503408,31.705921,1.44E-06,,
江苏捷锦门窗科技有限公司,存续,1000,金坛区,金属制品业,江苏省常州市金坛区茅山大道898号,,119.413473,31.730843,1.44E-06,,
江苏壹诺电力器材有限公司,存续,3000,金坛区,电气机械和器材制造业,江苏省常州市金坛区薛埠镇茅山大道1869-3号,,119.413473,31.730843,4.33E-06,,
江苏荣科塑业科技有限公司,存续,1000,金坛区,橡胶和塑料制品业,江苏省常州市金坛区朱林镇永顺路2号,,119.438383,31.728182,1.44E-06,,
江苏沪诚测控技术有限责任公司,存续,1000,金坛区,铁路运输业,江苏省常州市金坛区朱林镇金西工业园永顺路128号,,119.438383,31.728182,1.44E-06,,
江苏捷能门窗有限公司,存续,1000,金坛区,金属制品业,江苏省常州市金坛区薛埠镇花山村工业集中区28号,,119.382381,31.717564,1.44E-06,,
江苏鹏德保温包装材料有限公司,存续,2000,金坛区,非金属矿物制品业,江苏省常州市金坛区朱林镇永兴南路28号,,119.441816,31.728289,2.89E-06,,
常州思泉汽车科技有限公司,存续,1000,金坛区,汽车制造业,江苏省常州市金坛区朱林镇永兴南路32号,,119.441816,31.728289,1.44E-06,,
江苏顺发塑业有限公司,存续,1000,金坛区,橡胶和塑料制品业,江苏省常州市金坛区朱林镇金西工业园永兴南路26号,,119.441816,31.728289,1.44E-06,,
江苏亮舟防爆电气有限公司,存续,1500,金坛区,电气机械和器材制造业,江苏省常州市金坛区朱林镇龙溪大道196号,,119.43685,31.7281,2.17E-06,,
中之捷（常州）汽车零部件再制造有限公司,存续,2000,金坛区,汽车制造业,江苏省常州市金坛区朱林镇五联路99号,,119.440239,31.726294,2.89E-06,,
江苏科豪智能科技有限公司,存续,1000,金坛区,仪器仪表制造业,江苏省常州市金坛区朱林镇金西工业园五联路99号,,119.440239,31.726294,1.44E-06,,
日正升汽车科技（常州）有限公司,存续,3000,金坛区,汽车制造业,江苏省常州市金坛区朱林镇朱武路5号,,119.464741,31.737637,4.33E-06,,
江苏鑫田柴油机有限公司,存续,1010,金坛区,通用设备制造业,江苏省常州市金坛区金城镇后阳集镇兴阳北路,,119.556388,31.747531,1.46E-06,,
常州金坛金源电子有限公司,存续,1000,金坛区,仪器仪表制造业,江苏省常州市金坛区金城镇后阳街1号,,119.521194,31.747529,1.44E-06,,
常州市美吉亚玻璃科技有限公司,存续,1000,金坛区,非金属矿物制品业,江苏省常州市金坛区茅山旅游度假区尚水路1号-159,,119.33926,31.7605,1.44E-06,,
常州司美特节能建材有限公司,在业,1000,金坛区,非金属矿物制品业,江苏省常州市金坛区金城镇临港路76号,,119.556388,31.747531,1.44E-06,,
常州市宇达机械有限公司,存续,2000,金坛区,通用设备制造业,江苏省常州市金坛区临港路76号,,119.597897,31.723247,2.89E-06,,
常州泽阳新能源有限公司,存续,1000,金坛区,电气机械和器材制造业,江苏省常州市金坛区临港路76号,,119.597897,31.723247,1.44E-06,,
常州市金坛区安得兴金属制品有限公司,存续,1000,金坛区,金属制品业,江苏省常州市金坛区薛埠镇工业园区夏霄路1号,,119.388594,31.722044,1.44E-06,,
常州卡夫特机械有限公司,存续,1060,金坛区,通用设备制造业,江苏省常州市金坛区薛埠镇工业园区夏霄路2号,,119.388594,31.722044,1.53E-06,,
常州幸立机械科技有限公司,存续,1500,金坛区,汽车制造业,江苏省常州市金坛区薛埠镇工业园区夏霄路1-5号,,119.388594,31.722044,2.17E-06,,
江苏幸维金属科技有限公司,存续,1775,金坛区,汽车制造业,江苏省常州市金坛区薛埠镇工业园区夏霄路1—5号,,119.388594,31.722044,2.56E-06,,
常州嘉宥柴油机零部件有限公司,存续,1280,金坛区,通用设备制造业,江苏省常州市金坛区薛埠镇工业园区夏霄路8号,,119.388594,31.722044,1.85E-06,,
菲拉克焊接江苏有限公司,存续,2000,金坛区,金属制品业,江苏省常州市金坛区薛埠镇百花东路159号,,119.385313,31.7164,2.89E-06,,
江苏鹏泰塑业科技有限公司,存续,1500,金坛区,橡胶和塑料制品业,江苏省常州市金坛区金城镇西园路1号,,119.551919,31.773774,2.17E-06,,
常州万容新材料科技有限公司,存续,2000,金坛区,橡胶和塑料制品业,江苏省常州市金坛区薛埠镇工业园区公园路68号,,119.390397,31.718972,2.89E-06,,
江苏迎华精密机械科技有限公司,存续,1000,金坛区,通用设备制造业,江苏省常州市金坛区薛埠镇公园路1号,,119.389092,31.719166,1.44E-06,,
常州久泽机械有限公司,存续,1000,金坛区,通用设备制造业,江苏省常州市金坛区薛埠东环一路188号,,119.387053,31.719724,1.44E-06,,
江苏恒远仪器有限公司,存续,1000,金坛区,仪器仪表制造业,江苏省常州市金坛区金城工业园区盐港路98号,,119.552197,31.771569,1.44E-06,,
江苏华亨建材科技有限公司,存续,1122,金坛区,非金属矿物制品业,江苏省常州市金坛区盐港路88号,,119.553537,31.771536,1.62E-06,,
常州一工新材料科技有限公司,存续,1000,金坛区,橡胶和塑料制品业,江苏省常州市金坛区盐港路51号,,119.554587,31.771579,1.44E-06,,
常州泓盛混凝土有限公司,存续,2500,金坛区,非金属矿物制品业,江苏省常州市金坛区薛埠镇百花东路168号,,119.393481,31.714538,3.61E-06,,
常州市金坛常湘建材有限公司,存续,2500,金坛区,非金属矿物制品业,江苏省常州市金坛区薛埠镇百花东路168号,,119.393481,31.714538,3.61E-06,,
江苏艾尔发减速机有限公司,存续,1000,金坛区,通用设备制造业,江苏省常州市金坛区荆元路69号,,119.55664,31.770213,1.44E-06,,
常州市金坛海发新型建材有限公司,存续,1000,金坛区,非金属矿物制品业,江苏省常州市金坛区薛埠镇,,119.382381,31.717564,1.44E-06,,
江苏华尔升玻璃科技有限公司,存续,1000,金坛区,非金属矿物制品业,江苏省常州市金坛区金城南路38号,,119.545757,31.75512,1.44E-06,,
上海建工常州建亚建筑构件制品有限公司,存续,4500,金坛区,非金属矿物制品业,江苏省常州市金坛区金城镇圩门路19号,,119.561522,31.782431,6.50E-06,,
常州市金云精密机械配件有限公司,存续,3020,金坛区,通用设备制造业,江苏省常州市金坛区金城镇怒江路18号,,119.556406,31.770118,4.36E-06,,
江苏正名智能科技有限公司,存续,1500,金坛区,电气机械和器材制造业,江苏省常州市金坛区金城镇荆元路75号-2,,119.55664,31.770213,2.17E-06,,
江苏华一船舶有限公司,存续,2000,金坛区,铁路、船舶、航空航天和其他运输设备制造业,江苏省常州市金坛区薛埠镇工业园区凤凰路1号,,119.39174,31.712976,2.89E-06,,
江苏普惠塑业有限公司,存续,1000,金坛区,橡胶和塑料制品业,江苏省常州市金坛区薛埠镇工业园区凤凰路168号,,119.39174,31.712976,1.44E-06,,
江苏骏精赛自动化机械有限公司,存续,1000,金坛区,通用设备制造业,江苏省常州市金坛区薛埠镇工业园区凤凰路6号,,119.393054,31.712167,1.44E-06,,
协成（江苏）安全护栏有限公司,存续,1276,金坛区,金属制品业,江苏省常州市金坛区金城工业园区红山路31号,,119.556019,31.767158,1.84E-06,,
江苏耀通科技有限公司,存续,1000,金坛区,仪器仪表制造业,江苏省常州市金坛区金城镇西坝头路69号,,119.556388,31.747531,1.44E-06,,
常州远方卓越汽车部件有限公司,存续,2000,金坛区,汽车制造业,江苏省常州市金坛区盐港中路138号,,119.567756,31.772187,2.89E-06,,
常州广裕橡塑科技有限公司,存续,3776734061,金坛区,橡胶和塑料制品业,江苏省常州市金坛区金城镇红山路30号,,119.556472,31.766735,5.45E+00,,
江苏奥轩光电科技有限公司,存续,1000,金坛区,电气机械和器材制造业,江苏省常州市金坛区金城镇金城路215号,,119.545756,31.751959,1.44E-06,,
常州市荣科电器有限公司,存续,1000,金坛区,电气机械和器材制造业,江苏省常州市金坛区盐港中路121号,,119.559688,31.771945,1.44E-06,,
常州中腾轨道交通装备有限公司,存续,1900,金坛区,铁路、船舶、航空航天和其他运输设备制造业,江苏省常州市金坛区金城镇丹凤西路10号,,119.548845,31.755185,2.74E-06,,
江苏成鹏汽车内饰科技有限公司,存续,2000,金坛区,汽车制造业,江苏省常州市金坛区金城镇金城路216号,,119.54646,31.752004,2.89E-06,,
常州金坛宝华不锈钢制品有限公司,存续,1000,金坛区,金属制品业,江苏省常州市金坛区金阳东路85号,,119.54501,31.74797,1.44E-06,,
常州瑞联新材料有限公司,存续,1000,金坛区,橡胶和塑料制品业,江苏省常州市金坛区金城镇红山路29号,,119.557683,31.767097,1.44E-06,,
常州威斯双联科技有限公司,存续,1449511368,金坛区,橡胶和塑料制品业,江苏省常州市金坛区金城镇红山路29号,,119.557683,31.767097,2.09E+00,,
江苏金濠新能源科技有限公司,存续,2000,金坛区,电气机械和器材制造业,江苏省常州市金坛区良常西路308号,,119.553471,31.760246,2.89E-06,,
常州市金坛舜达建筑材料有限公司,存续,1000,金坛区,非金属矿物制品业,江苏省常州市金坛区金城镇白塔路613号,,119.559286,31.765412,1.44E-06,,
江苏宝骏光电材料有限公司,存续,1000,金坛区,电气机械和器材制造业,江苏省常州市金坛区红山路28号,,119.558038,31.76564,1.44E-06,,
江苏骏稳电源制造有限公司,存续,1000,金坛区,电气机械和器材制造业,江苏省常州市金坛区薛埠镇工业园区凤凰路6-3号,,119.393054,31.712167,1.44E-06,,
江苏鸿蒙精密机械有限公司,存续,1000,金坛区,通用设备制造业,江苏省常州市金坛区薛埠镇工业园区青春路1号,,119.382381,31.717564,1.44E-06,,
常州市状科电器有限公司,存续,3500,金坛区,电气机械和器材制造业,江苏省常州市金坛区金城镇西环二路59号,,119.55161,31.756008,5.05E-06,,
江苏英诺普精密科技有限公司,存续,2000,金坛区,仪器仪表制造业,江苏省常州市金坛区薛埠镇工业园区青春路3号,,119.382381,31.717564,2.89E-06,,
常州铭泽汽车部件有限公司,存续,1000,金坛区,汽车制造业,江苏省常州市金坛区薛埠镇工业园区庄头路8号,,119.382381,31.717564,1.44E-06,,
江苏盈讯测控科技有限公司,存续,1000,金坛区,仪器仪表制造业,江苏省常州市金坛区建昌集镇沿河南路8号,,119.37534,31.715292,1.44E-06,,
江苏正清机械科技发展有限公司,存续,2000,金坛区,汽车制造业,江苏省常州市金坛区薛埠镇工业园区南环路6号,,119.496164,31.419132,2.89E-06,,
常州金坛盘固轧石有限公司,存续,2000,金坛区,非金属矿物制品业,江苏省常州市金坛区薛埠镇茅洲路28号,,119.367301,31.71853,2.89E-06,,
常州市金坛军荣机械有限公司,存续,1980,金坛区,通用设备制造业,江苏省常州市金坛区金城镇红山路23-3号,,119.56078,31.767427,2.86E-06,,
常州满鑫机械科技有限公司,存续,1000,金坛区,通用设备制造业,江苏省常州市金坛区金城镇白塔路2806号,,119.561663,31.768849,1.44E-06,,
江苏后肖恒燕新型幕墙材料有限公司,存续,1000,金坛区,金属制品业,江苏省常州市金坛区薛埠镇工业园区曙光南路1号,,119.387734,31.708024,1.44E-06,,
常州金坛万杰电器有限公司,存续,1020,金坛区,电气机械和器材制造业,江苏省常州市金坛区良常西路8号,,119.558882,31.759759,1.47E-06,,
江苏威龙包装材料有限公司,存续,1000,金坛区,橡胶和塑料制品业,江苏省常州市金坛区红山路9号,,119.563703,31.767172,1.44E-06,,
江苏金鹏汽车座椅有限公司,存续,1200,金坛区,汽车制造业,江苏省常州市金坛区丹凤路15号,,119.558374,31.757854,1.73E-06,,
江苏德道汽车科技有限公司,存续,1000,金坛区,汽车制造业,江苏省常州市金坛区金城镇盐港中路69号7幢,,119.567756,31.772187,1.44E-06,,
江苏正図转印膜科技有限公司,存续,1914,金坛区,橡胶和塑料制品业,江苏省常州市金坛区良常中路249号37号楼,,119.560896,31.760784,2.76E-06,,
常州市晟兴电器有限公司,存续,1000,金坛区,电气机械和器材制造业,江苏省常州市金坛区良常中路269号,,119.560896,31.760784,1.44E-06,,
常州磐云精密机械有限公司,存续,1000,金坛区,通用设备制造业,江苏省常州市金坛区金城镇良常中路249号25号楼2号,,119.560896,31.760784,1.44E-06,,
常州金坛旭东机械配件有限公司,存续,1000,金坛区,通用设备制造业,江苏省常州市金坛区良常路268号-27,,119.562014,31.762267,1.44E-06,,
江苏圣迈亿密封件有限公司,存续,1000,金坛区,通用设备制造业,江苏省常州市金坛区红山路2号,,119.564936,31.766911,1.44E-06,,
常州蓝铁精工有限公司,存续,1000,金坛区,通用设备制造业,江苏省常州市金坛区凤凰城经济工业园25号东侧,,119.561906,31.761916,1.44E-06,,
江苏伊思灵双第弹簧有限公司,存续,1800,金坛区,金属制品业,江苏省常州市金坛区金城镇工业集中区西城路127号,,119.567057,31.770617,2.60E-06,,
江苏德林汽车零部件有限公司,存续,1000,金坛区,汽车制造业,江苏省常州市金坛区金城镇盐港中路69号,,119.567756,31.772187,1.44E-06,,
常州金坛赛亚机械有限公司,存续,1000,金坛区,通用设备制造业,江苏省常州市金坛区良常中路249号28-1号,,119.560896,31.760784,1.44E-06,,
江苏铭鼎新材料科技有限公司,在业,1258,金坛区,橡胶和塑料制品业,江苏省常州市金坛区三星路1038号,,119.597897,31.723247,1.82E-06,,
江苏春宇精密机械有限公司,存续,1000,金坛区,通用设备制造业,江苏省常州市金坛区白塔路2777号,,119.562718,31.769326,1.44E-06,,
常州金陵电力器材有限公司,存续,1000,金坛区,电气机械和器材制造业,江苏省常州市金坛区金城镇丹金路88号,,119.57869,31.789366,1.44E-06,,
江苏久力机械有限公司,存续,1000,金坛区,通用设备制造业,江苏省常州市金坛区金城镇白塔路1188号,,119.57899,31.794227,1.44E-06,,
常州扬明实业有限公司,存续,3000,金坛区,铁路、船舶、航空航天和其他运输设备制造业,江苏省常州市金坛区金城镇白塔丹金路118号,,119.578553,31.795748,4.33E-06,,
江苏航硕金属制品有限公司,存续,1000,金坛区,金属制品业,江苏省常州市金坛区金城镇丹金路26号,,119.57652,31.78766,1.44E-06,,
海睿斯（江苏）机械科技有限公司,存续,2000,金坛区,通用设备制造业,江苏省常州市金坛区金城镇丹金路26号,,119.57652,31.78766,2.89E-06,,
常州金坛金军动力机械有限公司,存续,1000,金坛区,通用设备制造业,江苏省常州市金坛区上元路5号,,119.564664,31.762046,1.44E-06,,
常州金坛羊力机械厂,存续,1000,金坛区,通用设备制造业,江苏省常州市金坛区金城镇白塔路1188号,,119.57899,31.794227,1.44E-06,,
绿芸加（常州）新材料有限公司,存续,2000,金坛区,橡胶和塑料制品业,江苏省常州市金坛区丹阳门北路99号,,119.56754,31.768552,2.89E-06,,
常州金坛盛泰门窗有限公司,存续,2000,金坛区,金属制品业,江苏省常州市金坛区上元路3号,,119.565711,31.76212,2.89E-06,,
常州勤创汽车配件有限公司,存续,1000,金坛区,汽车制造业,江苏省常州市金坛区金城镇丹金路77号,,119.5795,31.791782,1.44E-06,,
江苏弘盈轩钢结构有限公司,存续,1050,金坛区,金属制品业,江苏省常州市金坛区西环一路8号,,119.56325,31.757586,1.52E-06,,
常州市金坛区薛埠顺发采石有限公司,存续,1000,金坛区,非金属矿采选业,江苏省常州市金坛区薛埠镇连山村委建国村,,119.373478,31.706967,1.44E-06,,
江苏大力士云石护理材料有限公司,存续,1500,金坛区,橡胶和塑料制品业,江苏省常州市金坛区白塔镇工业集中区丹金路6号,,119.578113,31.790086,2.17E-06,,
常州市凯斯特汽车附件有限公司,存续,1000,金坛区,汽车制造业,江苏省常州市金坛区西城路103号,,119.566233,31.759292,1.44E-06,,
常州茁旺机械制造有限公司,存续,1000,金坛区,通用设备制造业,江苏省常州市金坛区金城镇白塔村委东关村58号,,119.584081,31.804109,1.44E-06,,
常州市金坛海华建筑材料有限公司,存续,1200,金坛区,非金属矿物制品业,江苏省常州市金坛区西门大街219号,,119.554526,31.743522,1.73E-06,,
江苏力迪汽车科技有限公司,存续,2000,金坛区,汽车制造业,江苏省常州市金坛区金湖北路55号,,119.597897,31.723247,2.89E-06,,
常州博海照明电器有限公司,存续,1000,金坛区,电气机械和器材制造业,江苏省常州市金坛区朱林镇西岗村港城路31号,,119.484982,31.698862,1.44E-06,,
江苏浩发新材料科技有限公司,存续,1000,金坛区,非金属矿物制品业,江苏省常州市金坛区薛埠镇工业园区锅底山路1号,,119.379861,31.703107,1.44E-06,,
江苏兴禾混凝土有限公司,存续,1000,金坛区,非金属矿物制品业,江苏省常州市金坛区金城镇龙山路268号,,119.539117,31.726335,1.44E-06,,
常州杰普森建材科技有限公司,在业,1000,金坛区,非金属矿物制品业,江苏省常州市金坛区金城镇南瑶村委龙桥村135号,,119.558076,31.74458,1.44E-06,,
江苏鑫隆线路器材有限公司,存续,2800,金坛区,电气机械和器材制造业,江苏省常州市金坛区金城镇金宜路8号,,119.58677,31.80663,4.04E-06,,
常州天坛燃气设备有限公司,存续,1200,金坛区,仪器仪表制造业,江苏省常州市金坛区金城镇白龙荡村委青龙村1号,,119.524724,31.715761,1.73E-06,,
江苏天坛实业有限公司,存续,2000,金坛区,电气机械和器材制造业,江苏省常州市金坛区金城镇白龙荡村委青龙村1号,,119.524724,31.715761,2.89E-06,,
常州金坛志强机械有限公司,存续,1000,金坛区,通用设备制造业,江苏省常州市金坛区北环西路130号,,119.563,31.749395,1.44E-06,,
江苏巨人焊接有限公司,存续,1500,金坛区,通用设备制造业,江苏省常州市金坛区江南路32号,,119.56165,31.746314,2.17E-06,,
常州市金坛成龙橡塑制品有限公司,存续,2198,金坛区,橡胶和塑料制品业,江苏省常州市金坛区白塔集镇南(丹金公路西侧),,119.597897,31.723247,3.17E-06,,
江苏优卓诺仪器制造有限公司,存续,1000,金坛区,仪器仪表制造业,江苏省常州市金坛区白塔镇曹庄村6号,,119.590679,31.817406,1.44E-06,,
江苏天驰轴承有限公司,存续,1000,金坛区,通用设备制造业,江苏省常州市金坛区西岗集镇(港城北路),,119.481109,31.695767,1.44E-06,,
常州市金坛区医用塑料厂,存续,2000,金坛区,橡胶和塑料制品业,江苏省常州市金坛区金城镇工业集中区丹凤路55号,,119.57211,31.75795,2.89E-06,,
江苏金榆科技集团汽车电子有限公司,存续,1668,金坛区,仪器仪表制造业,江苏省常州市金坛区丹阳门北路张角山8号,,119.5746,31.762782,2.41E-06,,
江苏普雷特塑料包装有限公司,存续,1858,金坛区,橡胶和塑料制品业,江苏省常州市金坛区丹凤路55号,,119.57211,31.75795,2.68E-06,,
常州浩源兴隆电子科技有限公司,存续,1019,金坛区,电气机械和器材制造业,江苏省常州市金坛区西门大街110栋101室,,119.563083,31.74495,1.47E-06,,
江苏新春兰科学仪器有限公司,存续,1000,金坛区,仪器仪表制造业,江苏省常州市金坛区丹阳门北路9-G号,,119.573239,31.756136,1.44E-06,,
常州金坛金云不锈钢制品有限公司,存续,2008,金坛区,金属制品业,江苏省常州市金坛区马家村166号,,119.558317,31.734628,2.90E-06,,
江苏德尔福汽车内装饰有限公司,存续,1180,金坛区,汽车制造业,江苏省常州市金坛区金城镇花桥村委马家村118号,,119.559712,31.734168,1.70E-06,,
常州永合电力设备有限公司,存续,1100,金坛区,电气机械和器材制造业,江苏省常州市金坛区朱林镇唐王南大街60号,,119.435576,31.684927,1.59E-06,,
常州市金坛南金机床有限公司,存续,1000,金坛区,通用设备制造业,江苏省常州市金坛区西岗镇唐王南大街66号,,119.437,31.684714,1.44E-06,,
江苏拜尔土木工程仪器有限公司,存续,1186,金坛区,仪器仪表制造业,江苏省常州市金坛区儒林镇沿河西路36号,,119.597897,31.723247,1.71E-06,,
江苏宝昂包装材料有限公司,存续,1000,金坛区,橡胶和塑料制品业,江苏省常州市金坛区盐港东路39号4幢6号,,119.591823,31.770332,1.44E-06,,
常州苏创自动化科技有限公司,存续,1000,金坛区,仪器仪表制造业,江苏省常州市金坛区金城镇盐港东路39号5幢4号,,119.556388,31.747531,1.44E-06,,
常州金坛立方混凝土有限公司,存续,1300,金坛区,非金属矿物制品业,江苏省常州市金坛区电厂路28号,,119.591823,31.770332,1.88E-06,,
江苏斯宾纳精密机械制造有限公司,存续,1018,金坛区,通用设备制造业,江苏省常州市金坛区金城镇盐港东路39号B11,,119.556388,31.747531,1.47E-06,,
江苏凯翔精密工具有限公司,存续,1000,金坛区,金属制品业,江苏省常州市金坛区金城镇盐港东路39号7幢8号,,119.564333,31.7303,1.44E-06,,
江苏金坛康达有限公司,存续,143015,金坛区,非金属矿物制品业,江苏省常州市金坛区电厂路28号,,119.556388,31.747531,2.07E-04,,
江苏伟曜塑胶科技有限公司,存续,1000,金坛区,橡胶和塑料制品业,江苏省常州市金坛区金城镇盐港东路39号B16,,119.556388,31.747531,1.44E-06,,
常州市浩德汽车配件有限公司,存续,1000,金坛区,汽车制造业,江苏省常州市金坛区金城镇盐港东路39号13幢1号,,119.556388,31.747531,1.44E-06,,
江苏惠斯福自动化科技有限公司,存续,1000,金坛区,仪器仪表制造业,江苏省常州市金坛区金城镇盐港东路39号7幢4号,,119.6012,31.795884,1.44E-06,,
江苏佳和电光源科技有限公司,存续,1000,金坛区,电气机械和器材制造业,江苏省常州市金坛区东下丘118号,,119.6012,31.795884,1.44E-06,,
常州市福莱美汽车零部件有限公司,存续,1900,金坛区,汽车制造业,江苏省常州市金坛区金城镇盐港东路39号2幢4号,,119.6012,31.795884,2.74E-06,,
江苏圣而达新型建材有限公司,存续,1000,金坛区,非金属矿物制品业,江苏省常州市金坛区金湖路998号,,119.6012,31.795884,1.44E-06,,
常州鑫晟建材有限公司,存续,1000,金坛区,非金属矿物制品业,江苏省常州市金坛区金湖路998号,,119.556388,31.747531,1.44E-06,,
江苏泛亚工程仪器有限公司,在业,1000,金坛区,仪器仪表制造业,江苏省常州市金坛区盐港东路39号7幢1号,,119.576292,31.742378,1.44E-06,,
江苏海翔新能源科技有限公司,存续,3000,金坛区,电气机械和器材制造业,江苏省常州市金坛区通闸路66号,,119.556388,31.747531,4.33E-06,,
江苏磁源动力科技有限公司,存续,2000,金坛区,电气机械和器材制造业,江苏省常州市金坛北门大街1号,,119.582075,31.74548,2.89E-06,,
安普汽车部件（江苏）有限公司,存续,1000,金坛区,汽车制造业,江苏省常州市金坛区西城街道仓房小区14-2号,,119.413011,31.676855,1.44E-06,,
江苏东禾电声配件有限公司,存续,1914,金坛区,电气机械和器材制造业,江苏省常州市金坛区薛埠镇工业集中区东环一路8号,,119.593355,31.76076,2.76E-06,,
江苏智文华新岩棉有限公司,存续,2000,金坛区,非金属矿物制品业,江苏省常州市金坛区华阳北路129号,,119.587711,31.74945,2.89E-06,,
江苏永展汽车零部件有限公司,存续,1000,金坛区,汽车制造业,江苏省常州市金坛区薛埠镇工业园区东环二路38号,,119.605172,31.753356,1.44E-06,,
江苏盛蓝仪器制造有限公司,存续,1000,金坛区,仪器仪表制造业,江苏省常州市金坛区北环东路29号,,119.569841,31.722353,1.44E-06,,
常州中鑫光伏有限公司,存续,1000,金坛区,电气机械和器材制造业,江苏省常州市金坛区薛埠镇工业园区东环一路118-2号,,119.599472,31.760768,1.44E-06,,
江苏新华城水泥制品有限公司,存续,2080,金坛区,非金属矿物制品业,江苏省常州市金坛区华阳北路15号,,119.584982,31.737668,3.00E-06,,
索科赛斯（江苏）机械科技有限公司,存续,1000,金坛区,汽车制造业,江苏省常州市金坛区金坛大道58号,,119.60115,31.761299,1.44E-06,,
常州金禾新能源科技有限公司,存续,1000,金坛区,电气机械和器材制造业,江苏省常州市金坛区晨风路900号8号楼102室,,119.591,31.742225,1.44E-06,,
常州腾程电力成套设备有限公司,存续,4800,金坛区,电气机械和器材制造业,江苏省常州市金坛区薛埠镇工业园区东环二路45号,,119.602717,31.760492,6.93E-06,,
常州市金坛大地自动化仪器厂,存续,1200,金坛区,仪器仪表制造业,江苏省常州市金坛区金城镇东门大街384号,,119.589915,31.737985,1.73E-06,,
常州市金坛区腾龙钢木家具有限公司,存续,1100,金坛区,家具制造业,江苏省常州市金坛区南环二路122号,,119.604083,31.760383,1.59E-06,,
江苏广信时代玻璃科技有限公司,存续,1000,金坛区,非金属矿物制品业,江苏省常州市金坛区良常东路109-1号,,119.595244,31.743199,1.44E-06,,
江苏常富门窗科技有限公司,存续,2000,金坛区,金属制品业,江苏省常州市金坛区金沙大道1318号,,119.605542,31.760268,2.89E-06,,
常州金坛天源电气成套设备有限公司,存续,1200,金坛区,通用设备制造业,江苏省常州市金坛区南环二路30号,,119.595932,31.742802,1.73E-06,,
常州现代混凝土有限公司,存续,1000,金坛区,非金属矿物制品业,江苏省常州市金坛区良常东路99号,,119.595932,31.742802,1.44E-06,,
常州华宇混凝土有限公司,存续,1000,金坛区,非金属矿物制品业,江苏省常州市金坛区金城镇金宜路28号,,119.595932,31.742802,1.44E-06,,
常州欧凡建材有限公司,存续,3000,金坛区,非金属矿物制品业,江苏省常州市金坛区金宜路28号,,119.595932,31.742802,4.33E-06,,
常州易荣达电杆有限公司,存续,3600,金坛区,非金属矿物制品业,江苏省常州市金坛区良常路58号,,119.595932,31.742802,5.20E-06,,
江苏智越电池动力系统有限公司,存续,1000,金坛区,汽车制造业,江苏省常州市金坛区朱林镇晨风路88号,,119.595932,31.742802,1.44E-06,,
江苏源源汽车零部件有限公司,存续,3000,金坛区,汽车制造业,江苏省常州市金坛区金城镇白塔工业集中区金宜路1号,,119.595932,31.742802,4.33E-06,,
江苏新凯源汽车零部件制造有限公司,存续,3000,金坛区,汽车制造业,江苏省常州市金坛区金城镇白塔工业集中区金宜路1号,,119.595932,31.742802,4.33E-06,,
常州汇宸汽车部件有限公司,存续,1000,金坛区,汽车制造业,江苏省常州市金坛区金城镇白塔工业集中区金宜路1号,,119.595932,31.742802,1.44E-06,,
中禾（江苏）集成房屋科技有限公司,在业,1000,金坛区,金属制品业,江苏省常州市金坛区华城中路138号,,119.595932,31.742802,1.44E-06,,
常州市金坛华达市政工程有限公司,存续,2000,金坛区,金属制品业,江苏省常州市金坛区华城中路168号,,119.602036,31.751158,2.89E-06,,
常州法塔铝铸造设备有限公司,存续,1000,金坛区,通用设备制造业,江苏省常州市金坛区华城中路168号,,119.588875,31.732302,1.44E-06,,
常州捷尔泰金属制品有限公司,存续,1000,金坛区,金属制品业,江苏省常州市金坛区华城中路168号,,119.618472,31.791897,1.44E-06,,
常州瑞安普新材料有限公司,存续,14286,金坛区,橡胶和塑料制品业,江苏省常州市金坛区华城中路168号,,119.509082,31.675522,2.06E-05,,
常州市福欧车辆配件有限公司,存续,1000,金坛区,汽车制造业,江苏省常州市金坛区华城中路168号,,119.607822,31.76008,1.44E-06,,
常州日研精密机械有限公司,存续,1000,金坛区,通用设备制造业,江苏省常州市金坛区华城中路168号,,119.607822,31.76008,1.44E-06,,
祥晟塑业（常州）有限公司,存续,1000,金坛区,橡胶和塑料制品业,江苏省常州市金坛区华城中路168号,,119.590927,31.733265,1.44E-06,,
常州金仕达汽配科技有限公司,存续,3000,金坛区,汽车制造业,江苏省常州市金坛区华城中路168号,,119.611809,31.76529,4.33E-06,,
常州市环球电力机械有限公司,存续,1000,金坛区,电气机械和器材制造业,江苏省常州市金坛区华城中路168号,,119.606978,31.752947,1.44E-06,,
常州久正汽车内饰科技有限公司,存续,3000,金坛区,汽车制造业,江苏省常州市金坛区华城中路168号,,119.606978,31.752947,4.33E-06,,
常州市吉驰汽车配件有限责任公司,存续,2485,金坛区,汽车制造业,江苏省常州市金坛区华城中路168号,,119.600601,31.753384,3.59E-06,,
江苏杰浩现代农业装备有限公司,存续,1000,金坛区,通用设备制造业,江苏省常州市金坛区华城中路168号,,119.608904,31.752946,1.44E-06,,
常州梅香仪器有限公司,存续,1000,金坛区,仪器仪表制造业,江苏省常州市金坛区晨风路57-7号,,119.61114,31.75627,1.44E-06,,
江苏鑫浩仪器有限公司,存续,1000,金坛区,仪器仪表制造业,江苏省常州市金坛区晨风路57-8号,,119.607719,31.748878,1.44E-06,,
江苏鼎荣电缆科技有限公司,存续,2010,金坛区,电气机械和器材制造业,江苏省常州市金坛区柘荡村委工业园4号楼,,119.501163,31.666347,2.90E-06,,
江苏汇洲电梯部件有限公司,存续,1000,金坛区,通用设备制造业,江苏省常州市金坛区指前镇王母观村委上溪圩505号,,119.609379,31.746644,1.44E-06,,
常州市金坛区圣通混凝土构件有限公司,存续,1600,金坛区,非金属矿物制品业,江苏省常州市金坛区良常路28号,,119.556388,31.747531,2.31E-06,,
江苏恒昱机械科技有限公司,存续,1000,金坛区,通用设备制造业,江苏省常州市金坛区晨风路877号,,119.611626,31.748337,1.44E-06,,
常州金坛恒丰仪器制造有限公司,存续,1000,金坛区,仪器仪表制造业,江苏省常州市金坛区思母路6号,,119.526651,31.671113,1.44E-06,,
江苏国瓷金盛陶瓷科技有限公司,存续,1000,金坛区,非金属矿物制品业,江苏省常州市金坛经济开发区思母路1号,,119.619422,31.586178,1.44E-06,,
常州市亚泰工程材料有限公司,存续,1000,金坛区,金属制品业,江苏省常州市金坛区左邻右里49幢108室,,119.611667,31.740208,1.44E-06,,
江苏天鹅动力机械集团有限公司,存续,3000,金坛区,通用设备制造业,江苏省常州市金坛区华城东路1号,,119.611667,31.740208,4.33E-06,,
常州金坛鑫豪特种机械配件有限公司,存续,1000,金坛区,通用设备制造业,江苏省常州市金坛区金城镇洮西工业集中区中路1号,,119.527674,31.670177,1.44E-06,,
常州市金坛区鼎金混凝土有限公司,存续,1600,金坛区,非金属矿物制品业,江苏省常州市金坛区金城镇洮西工业集中区中路1号,,119.613642,31.739759,2.31E-06,,
常州市三洋精密制版有限公司,存续,1000,金坛区,金属制品业,江苏省常州市金坛区汇贤中路58号,,119.52423,31.661022,1.44E-06,,
江苏益昇新能源科技有限公司,存续,1000,金坛区,电气机械和器材制造业,江苏省常州市金坛经济开发区汇贤中路89号,,119.622928,31.753972,1.44E-06,,
江苏瑞禾测控有限公司,存续,1000,金坛区,仪器仪表制造业,江苏省常州市金坛区华达名都43幢14号,,119.605974,31.727413,1.44E-06,,
江苏亨泰汽车零部件有限公司,存续,3000,金坛区,汽车制造业,江苏省常州市金坛区金坛大道58号,,119.620465,31.748441,4.33E-06,,
江苏凯灵汽车电器有限公司,存续,1000,金坛区,汽车制造业,江苏省常州市金坛经济开发区金胜东路8号,,119.622188,31.750554,1.44E-06,,
江苏三驰机械科技有限公司,存续,1000,金坛区,通用设备制造业,江苏省常州市金坛区金沙大道698号,,119.622985,31.748589,1.44E-06,,
江苏中谨精密机械有限公司,存续,1000,金坛区,通用设备制造业,江苏省常州市金坛区汇贤南路3号物管楼,,119.62389,31.748251,1.44E-06,,
艾贝思车辆科技（常州）有限公司,存续,1000,金坛区,汽车制造业,江苏省常州市金坛区汇贤南路3号物管楼,,119.625801,31.750665,1.44E-06,,
中成（江苏）集成房屋科技有限公司,存续,1000,金坛区,金属制品业,江苏省常州市金坛区汇贤南路2号C幢,,119.625989,31.750339,1.44E-06,,
常州德博新材料科技有限公司,存续,1000,金坛区,橡胶和塑料制品业,江苏省常州市金坛经济开发区华丰路2号,,119.625522,31.747375,1.44E-06,,
常州鑫坛电力成套设备有限公司,存续,2800,金坛区,电气机械和器材制造业,江苏省常州市金坛区华丰路6号,,119.628302,31.751498,4.04E-06,,
康诚（江苏）机械制造有限公司,存续,1000,金坛区,通用设备制造业,江苏省常州市金坛区经济开发区华电路8号,,119.631062,31.755512,1.44E-06,,
常州集友电子科技有限公司,存续,1000,金坛区,橡胶和塑料制品业,江苏省常州市金坛区金湖路29号,,119.631062,31.755512,1.44E-06,,
江苏峨嵋动力机械有限公司,存续,2780,金坛区,通用设备制造业,江苏省常州市金坛区金胜东路28号,,119.628302,31.751498,4.01E-06,,
常州市东洋橡塑新材料有限公司,存续,1000,金坛区,橡胶和塑料制品业,江苏省常州市金坛区华丰路68号,,119.624144,31.742566,1.44E-06,,
常州金坛金木工程仪器厂,存续,1000,金坛区,仪器仪表制造业,江苏省常州市金坛区华丰路16号,,119.624144,31.742566,1.44E-06,,
常州宇胜土木工程仪器有限公司,存续,1000,金坛区,仪器仪表制造业,江苏省常州市金坛经济开发区华丰路16号,,119.631062,31.755512,1.44E-06,,
常州市合创智能科技有限公司,存续,2000,金坛区,仪器仪表制造业,江苏省常州市金坛区华丰路18号,,119.631062,31.755512,2.89E-06,,
江苏杰瑞尔电器有限公司,存续,1000,金坛区,电气机械和器材制造业,江苏省常州市金坛区华兴路16号,,119.631062,31.755512,1.44E-06,,
江苏文天长液压有限公司,存续,1000,金坛区,通用设备制造业,江苏省常州市金坛区恒泰路9号,,119.631062,31.755512,1.44E-06,,
常州市金坛区华宇电力器材有限公司,存续,1000,金坛区,电气机械和器材制造业,江苏省常州市金坛区金胜东路68号,,119.635242,31.763185,1.44E-06,,
常州市金坛常达金属构件有限公司,存续,3000,金坛区,金属制品业,江苏省常州市金坛经济开发区中兴路38号,,119.635908,31.763173,4.33E-06,,
江苏罗纳尔多仪器制造有限公司,存续,1000,金坛区,仪器仪表制造业,江苏省常州市金坛区金胜东路88号,,119.626483,31.742725,1.44E-06,,
常州天益遮阳窗饰有限公司,存续,4200,金坛区,金属制品业,江苏省常州市金坛开发区恒泰路8号,,119.629123,31.747367,6.07E-06,,
江苏晶众机电有限公司,存续,1000,金坛区,电气机械和器材制造业,江苏省常州市金坛经济开发区华城路288-1号2幢1号,,119.631184,31.750804,1.44E-06,,
江苏恒瑞净化工程设备有限公司,存续,1000,金坛区,通用设备制造业,江苏省常州市金坛区华城路288-1号浚博小微企业园6-3号,,119.631184,31.750804,1.44E-06,,
常州瑞诺车辆部件有限公司,存续,1200,金坛区,汽车制造业,江苏省常州市金坛区恒泰路6号,,119.631184,31.750804,1.73E-06,,
江苏格罗博电气有限公司,存续,32798,金坛区,电气机械和器材制造业,江苏省常州市金坛区恒泰路2号,,119.631184,31.750804,4.74E-05,,
常州市奥亚油泵油嘴有限公司,存续,1000,金坛区,汽车制造业,江苏省常州市金坛区恒泰路5号,,119.62883,31.745879,1.44E-06,,
江苏斯克特工业科技有限公司,存续,1000,金坛区,通用设备制造业,江苏省常州市金坛区恒泰路10号,,119.630555,31.748977,1.44E-06,,
凯翔汽车装备（常州）有限公司,存续,1000,金坛区,汽车制造业,江苏省常州市金坛区晨风路869号,,119.551919,31.773774,1.44E-06,,
常州市鑫愉宝传动部件有限公司,存续,1000,金坛区,通用设备制造业,江苏省常州市金坛区恒泰路1号,,119.556388,31.747531,1.44E-06,,
常州中驰车业科技有限公司,存续,1000,金坛区,汽车制造业,江苏省常州市金坛区洮西集镇西街18号,,119.55664,31.770213,1.44E-06,,
江苏鑫田电子科技有限公司,存续,3000,金坛区,电气机械和器材制造业,江苏省常州市金坛区中兴路79号,,119.55664,31.770213,4.33E-06,,
常州凯度机电有限公司,存续,2000,金坛区,电气机械和器材制造业,江苏省常州市金坛区华城路286号,,119.554745,31.772169,2.89E-06,,
常州昊虹汽车配件有限公司,存续,2000,金坛区,汽车制造业,江苏省常州市金坛区金胜东路233号,,119.553537,31.771536,2.89E-06,,
常州崴特环境科技有限公司,存续,1000,金坛区,仪器仪表制造业,江苏省常州市金坛区华兴路150号,,119.554587,31.771579,1.44E-06,,
江苏久标全屋定制有限公司,存续,1000,金坛区,家具制造业,江苏省常州市金坛经济开发区中兴路56号,,119.561522,31.782431,1.44E-06,,
常州市赛尔交通器材有限公司,存续,10944,金坛区,汽车制造业,江苏省常州市金坛经济开发区中兴路81号,,119.567756,31.772187,1.58E-05,,
江苏福亿自动化设备有限公司,存续,2350,金坛区,电气机械和器材制造业,江苏省常州市金坛区华兴路211号,,119.559688,31.771945,3.39E-06,,
常州金坛恒发机械配件有限公司,存续,1000,金坛区,通用设备制造业,江苏省常州市金坛区华兴路216号,,119.556019,31.767158,1.44E-06,,
常州金坛万昌刀具制造有限公司,存续,3617864587,金坛区,金属制品业,江苏省常州市金坛经济开发区中兴路56号,,119.556388,31.747531,5.22E+00,,
斐瑞博机械江苏有限公司,存续,1000,金坛区,通用设备制造业,江苏省常州市金坛经济开发区中塘桥48号,,119.556472,31.766735,1.44E-06,,
江苏腾沅机械科技有限公司,在业,1000,金坛区,铁路、船舶、航空航天和其他运输设备制造业,江苏省常州市金坛经济开发区华丰路116号,,119.557683,31.767097,1.44E-06,,
江苏鹏泰塑业科技有限公司,存续,1500,金坛区,橡胶和塑料制品业,江苏省常州市金坛区金城镇西园路1号,,119.557683,31.767097,2.17E-06,,
江苏艾尔发减速机有限公司,存续,1000,金坛区,通用设备制造业,江苏省常州市金坛区荆元路69号,,119.559509,31.767052,1.44E-06,,
江苏恒远仪器有限公司,存续,1000,金坛区,仪器仪表制造业,江苏省常州市金坛区金城工业园区盐港路98号,,119.56141,31.766763,1.44E-06,,
江苏华亨建材科技有限公司,存续,1122,金坛区,非金属矿物制品业,江苏省常州市金坛区盐港路88号,,119.559286,31.765412,1.62E-06,,
常州一工新材料科技有限公司,存续,1000,金坛区,橡胶和塑料制品业,江苏省常州市金坛区盐港路51号,,119.567756,31.772187,1.44E-06,,
上海建工常州建亚建筑构件制品有限公司,存续,4500,金坛区,非金属矿物制品业,江苏省常州市金坛区金城镇圩门路19号,,119.567756,31.772187,6.50E-06,,
常州远方卓越汽车部件有限公司,存续,2000,金坛区,汽车制造业,江苏省常州市金坛区盐港中路138号,,119.567756,31.772187,2.89E-06,,
江苏正名智能科技有限公司,存续,1500,金坛区,电气机械和器材制造业,江苏省常州市金坛区金城镇荆元路75号-2,,119.567756,31.772187,2.17E-06,,
常州市金云精密机械配件有限公司,存续,3020,金坛区,通用设备制造业,江苏省常州市金坛区金城镇怒江路18号,,119.567756,31.772187,4.36E-06,,
常州市荣科电器有限公司,存续,1000,金坛区,电气机械和器材制造业,江苏省常州市金坛区盐港中路121号,,119.567756,31.772187,1.44E-06,,
协成（江苏）安全护栏有限公司,存续,1276,金坛区,金属制品业,江苏省常州市金坛区金城工业园区红山路31号,,119.567756,31.772187,1.84E-06,,
常州广裕橡塑科技有限公司,存续,3776734061,金坛区,橡胶和塑料制品业,江苏省常州市金坛区金城镇红山路30号,,119.567057,31.770617,5.45E+00,,
常州瑞联新材料有限公司,存续,1000,金坛区,橡胶和塑料制品业,江苏省常州市金坛区金城镇红山路29号,,119.567057,31.770617,1.44E-06,,
常州威斯双联科技有限公司,存续,1449511368,金坛区,橡胶和塑料制品业,江苏省常州市金坛区金城镇红山路29号,,119.563703,31.767172,2.09E+00,,
常州满鑫机械科技有限公司,存续,1000,金坛区,通用设备制造业,江苏省常州市金坛区金城镇白塔路2806号,,119.567756,31.772187,1.44E-06,,
常州市金坛军荣机械有限公司,存续,1980,金坛区,通用设备制造业,江苏省常州市金坛区金城镇红山路23-3号,,119.564335,31.766809,2.86E-06,,
江苏宝骏光电材料有限公司,存续,1000,金坛区,电气机械和器材制造业,江苏省常州市金坛区红山路28号,,119.567076,31.769291,1.44E-06,,
江苏德道汽车科技有限公司,存续,1000,金坛区,汽车制造业,江苏省常州市金坛区金城镇盐港中路69号7幢,,119.597897,31.723247,1.44E-06,,
江苏伊思灵双第弹簧有限公司,存续,1800,金坛区,金属制品业,江苏省常州市金坛区金城镇工业集中区西城路127号,,119.561205,31.761331,2.60E-06,,
江苏威龙包装材料有限公司,存续,1000,金坛区,橡胶和塑料制品业,江苏省常州市金坛区红山路9号,,119.560896,31.760784,1.44E-06,,
江苏德林汽车零部件有限公司,存续,1000,金坛区,汽车制造业,江苏省常州市金坛区金城镇盐港中路69号,,119.560896,31.760784,1.44E-06,,
江苏圣迈亿密封件有限公司,存续,1000,金坛区,通用设备制造业,江苏省常州市金坛区红山路2号,,119.553634,31.758567,1.44E-06,,
常州司美特节能建材有限公司,在业,1000,金坛区,非金属矿物制品业,江苏省常州市金坛区金城镇临港路76号,,119.565711,31.76212,1.44E-06,,
常州市宇达机械有限公司,存续,2000,金坛区,通用设备制造业,江苏省常州市金坛区临港路76号,,119.565208,31.760501,2.89E-06,,
常州泽阳新能源有限公司,存续,1000,金坛区,电气机械和器材制造业,江苏省常州市金坛区临港路76号,,119.558374,31.757854,1.44E-06,,
绿芸加（常州）新材料有限公司,存续,2000,金坛区,橡胶和塑料制品业,江苏省常州市金坛区丹阳门北路99号,,119.560233,31.758071,2.89E-06,,
常州市金坛舜达建筑材料有限公司,存续,1000,金坛区,非金属矿物制品业,江苏省常州市金坛区金城镇白塔路613号,,119.557344,31.75675,1.44E-06,,
江苏金濠新能源科技有限公司,存续,2000,金坛区,电气机械和器材制造业,江苏省常州市金坛区良常西路308号,,119.55161,31.756008,2.89E-06,,
常州金坛旭东机械配件有限公司,存续,1000,金坛区,通用设备制造业,江苏省常州市金坛区良常路268号-27,,119.57652,31.78766,1.44E-06,,
常州蓝铁精工有限公司,存续,1000,金坛区,通用设备制造业,江苏省常州市金坛区凤凰城经济工业园25号东侧,,119.54957,31.75582,1.44E-06,,
江苏春宇精密机械有限公司,存续,1000,金坛区,通用设备制造业,江苏省常州市金坛区白塔路2777号,,119.56325,31.757586,1.44E-06,,
江苏正図转印膜科技有限公司,存续,1914,金坛区,橡胶和塑料制品业,江苏省常州市金坛区良常中路249号37号楼,,119.549501,31.755425,2.76E-06,,
常州市晟兴电器有限公司,存续,1000,金坛区,电气机械和器材制造业,江苏省常州市金坛区良常中路269号,,119.552654,31.754788,1.44E-06,,
常州磐云精密机械有限公司,存续,1000,金坛区,通用设备制造业,江苏省常州市金坛区金城镇良常中路249号25号楼2号,,119.545757,31.75512,1.44E-06,,
常州金坛赛亚机械有限公司,存续,1000,金坛区,通用设备制造业,江苏省常州市金坛区良常中路249号28-1号,,119.555033,31.754544,1.44E-06,,
常州金坛万杰电器有限公司,存续,1020,金坛区,电气机械和器材制造业,江苏省常州市金坛区良常西路8号,,119.552643,31.754273,1.47E-06,,
常州金坛金军动力机械有限公司,存续,1000,金坛区,通用设备制造业,江苏省常州市金坛区上元路5号,,119.578113,31.790086,1.44E-06,,
常州金坛盛泰门窗有限公司,存续,2000,金坛区,金属制品业,江苏省常州市金坛区上元路3号,,119.57414,31.762799,2.89E-06,,
江苏金鹏汽车座椅有限公司,存续,1200,金坛区,汽车制造业,江苏省常州市金坛区丹凤路15号,,119.57869,31.789366,1.73E-06,,
常州市状科电器有限公司,存续,3500,金坛区,电气机械和器材制造业,江苏省常州市金坛区金城镇西环二路59号,,119.554532,31.752093,5.05E-06,,
江苏航硕金属制品有限公司,存续,1000,金坛区,金属制品业,江苏省常州市金坛区金城镇丹金路26号,,119.554532,31.752093,1.44E-06,,
海睿斯（江苏）机械科技有限公司,存续,2000,金坛区,通用设备制造业,江苏省常州市金坛区金城镇丹金路26号,,119.5795,31.791782,2.89E-06,,
常州市凯斯特汽车附件有限公司,存续,1000,金坛区,汽车制造业,江苏省常州市金坛区西城路103号,,119.57211,31.75795,1.44E-06,,
江苏弘盈轩钢结构有限公司,存续,1050,金坛区,金属制品业,江苏省常州市金坛区西环一路8号,,119.545756,31.751959,1.52E-06,,
常州中腾轨道交通装备有限公司,存续,1900,金坛区,铁路、船舶、航空航天和其他运输设备制造业,江苏省常州市金坛区金城镇丹凤西路10号,,119.57899,31.794227,2.74E-06,,
江苏华尔升玻璃科技有限公司,存续,1000,金坛区,非金属矿物制品业,江苏省常州市金坛区金城南路38号,,119.545636,31.751214,1.44E-06,,
江苏大力士云石护理材料有限公司,存续,1500,金坛区,橡胶和塑料制品业,江苏省常州市金坛区白塔镇工业集中区丹金路6号,,119.573239,31.756136,2.17E-06,,
常州市金坛成龙橡塑制品有限公司,存续,2198,金坛区,橡胶和塑料制品业,江苏省常州市金坛区白塔集镇南(丹金公路西侧),,119.574863,31.75637,3.17E-06,,
江苏金榆科技集团汽车电子有限公司,存续,1668,金坛区,仪器仪表制造业,江苏省常州市金坛区丹阳门北路张角山8号,,119.558859,31.748994,2.41E-06,,
常州金陵电力器材有限公司,存续,1000,金坛区,电气机械和器材制造业,江苏省常州市金坛区金城镇丹金路88号,,119.549333,31.748295,1.44E-06,,
常州市金坛区医用塑料厂,存续,2000,金坛区,橡胶和塑料制品业,江苏省常州市金坛区金城镇工业集中区丹凤路55号,,119.567756,31.772187,2.89E-06,,
常州勤创汽车配件有限公司,存续,1000,金坛区,汽车制造业,江苏省常州市金坛区金城镇丹金路77号,,119.560772,31.746572,1.44E-06,,
江苏成鹏汽车内饰科技有限公司,存续,2000,金坛区,汽车制造业,江苏省常州市金坛区金城镇金城路216号,,119.524724,31.715761,2.89E-06,,
江苏普雷特塑料包装有限公司,存续,1858,金坛区,橡胶和塑料制品业,江苏省常州市金坛区丹凤路55号,,119.524724,31.715761,2.68E-06,,
江苏奥轩光电科技有限公司,存续,1000,金坛区,电气机械和器材制造业,江苏省常州市金坛区金城镇金城路215号,,119.524724,31.715761,1.44E-06,,
江苏久力机械有限公司,存续,1000,金坛区,通用设备制造业,江苏省常州市金坛区金城镇白塔路1188号,,119.545294,31.699852,1.44E-06,,
常州金坛羊力机械厂,存续,1000,金坛区,通用设备制造业,江苏省常州市金坛区金城镇白塔路1188号,,119.545294,31.699852,1.44E-06,,
常州扬明实业有限公司,存续,3000,金坛区,铁路、船舶、航空航天和其他运输设备制造业,江苏省常州市金坛区金城镇白塔丹金路118号,,119.506235,31.739634,4.33E-06,,
江苏新春兰科学仪器有限公司,存续,1000,金坛区,仪器仪表制造业,江苏省常州市金坛区丹阳门北路9-G号,,119.484982,31.698862,1.44E-06,,
常州金坛宝华不锈钢制品有限公司,存续,1000,金坛区,金属制品业,江苏省常州市金坛区金阳东路85号,,119.597897,31.723247,1.44E-06,,
常州金坛志强机械有限公司,存续,1000,金坛区,通用设备制造业,江苏省常州市金坛区北环西路130号,,119.597897,31.723247,1.44E-06,,
江苏耀通科技有限公司,存续,1000,金坛区,仪器仪表制造业,江苏省常州市金坛区金城镇西坝头路69号,,119.509082,31.675522,1.44E-06,,
常州天坛燃气设备有限公司,存续,1200,金坛区,仪器仪表制造业,江苏省常州市金坛区金城镇白龙荡村委青龙村1号,,119.556388,31.747531,1.73E-06,,
江苏天坛实业有限公司,存续,2000,金坛区,电气机械和器材制造业,江苏省常州市金坛区金城镇白龙荡村委青龙村1号,,119.556388,31.747531,2.89E-06,,
江苏兴禾混凝土有限公司,存续,1000,金坛区,非金属矿物制品业,江苏省常州市金坛区金城镇龙山路268号,,119.526651,31.671113,1.44E-06,,
江苏铭鼎新材料科技有限公司,在业,1258,金坛区,橡胶和塑料制品业,江苏省常州市金坛区三星路1038号,,119.559712,31.734168,1.82E-06,,
江苏常富门窗科技有限公司,存续,2000,金坛区,金属制品业,江苏省常州市金坛区金沙大道1318号,,119.55161,31.756008,2.89E-06,,
江苏天驰轴承有限公司,存续,1000,金坛区,通用设备制造业,江苏省常州市金坛区西岗集镇(港城北路),,119.464741,31.737637,1.44E-06,,
常州博海照明电器有限公司,存续,1000,金坛区,电气机械和器材制造业,江苏省常州市金坛区朱林镇西岗村港城路31号,,119.569841,31.722353,1.44E-06,,
常州金坛金源电子有限公司,存续,1000,金坛区,仪器仪表制造业,江苏省常州市金坛区金城镇后阳街1号,,119.569841,31.722353,1.44E-06,,
江苏汇洲电梯部件有限公司,存续,1000,金坛区,通用设备制造业,江苏省常州市金坛区指前镇王母观村委上溪圩505号,,119.527674,31.670177,1.44E-06,,
江苏鑫田柴油机有限公司,存续,1010,金坛区,通用设备制造业,江苏省常州市金坛区金城镇后阳集镇兴阳北路,,119.570903,31.724669,1.46E-06,,
常州金坛鑫豪特种机械配件有限公司,存续,1000,金坛区,通用设备制造业,江苏省常州市金坛区金城镇洮西工业集中区中路1号,,119.464741,31.737637,1.44E-06,,
常州市金坛区鼎金混凝土有限公司,存续,1600,金坛区,非金属矿物制品业,江苏省常州市金坛区金城镇洮西工业集中区中路1号,,119.464741,31.737637,2.31E-06,,
常州金坛金云不锈钢制品有限公司,存续,2008,金坛区,金属制品业,江苏省常州市金坛区马家村166号,,119.464741,31.737637,2.90E-06,,
江苏三驰机械科技有限公司,存续,1000,金坛区,通用设备制造业,江苏省常州市金坛区金沙大道698号,,119.54646,31.752004,1.44E-06,,
江苏德尔福汽车内装饰有限公司,存续,1180,金坛区,汽车制造业,江苏省常州市金坛区金城镇花桥村委马家村118号,,119.59237,31.719918,1.70E-06,,
江苏耀通科技有限公司,存续,1000,金坛区,仪器仪表制造业,江苏省常州市金坛区金城镇西坝头路69号,,119.545115,31.752945,1.44E-06,,
江苏佳和电光源科技有限公司,存续,1000,金坛区,电气机械和器材制造业,江苏省常州市金坛区东下丘118号,,119.545757,31.75512,1.44E-06,,
常州金坛宝华不锈钢制品有限公司,存续,1000,金坛区,金属制品业,江苏省常州市金坛区金阳东路85号,,119.556388,31.747531,1.44E-06,,
常州市金坛海华建筑材料有限公司,存续,1200,金坛区,非金属矿物制品业,江苏省常州市金坛区西门大街219号,,119.560772,31.746572,1.73E-06,,
江苏华达玻璃有限公司,存续,1700,金坛区,非金属矿物制品业,江苏省常州市金坛区朱林镇工业集中区69号,,119.562733,31.74495,2.45E-06,,
常州市金坛区腾龙钢木家具有限公司,存续,1100,金坛区,家具制造业,江苏省常州市金坛区南环二路122号,,119.52423,31.661022,1.59E-06,,
江苏成业地效翼船有限公司,存续,1700,金坛区,铁路、船舶、航空航天和其他运输设备制造业,江苏省常州市金坛区朱林镇长兴工业园区19号,,119.552643,31.754273,2.45E-06,,
常州市旺达变压器有限公司,存续,1520,金坛区,电气机械和器材制造业,江苏省常州市金坛区朱林镇工业集中区168号,,119.54957,31.75582,2.20E-06,,
江苏奥轩光电科技有限公司,存续,1000,金坛区,电气机械和器材制造业,江苏省常州市金坛区金城镇金城路215号,,119.55161,31.756008,1.44E-06,,
常州市金坛隆宇机械有限公司,存续,1000,金坛区,通用设备制造业,江苏省常州市金坛区朱林镇长兴工业园区158号,,119.555033,31.754544,1.44E-06,,
常州杰普森建材科技有限公司,在业,1000,金坛区,非金属矿物制品业,江苏省常州市金坛区金城镇南瑶村委龙桥村135号,,119.563,31.749395,1.44E-06,,
江苏成鹏汽车内饰科技有限公司,存续,2000,金坛区,汽车制造业,江苏省常州市金坛区金城镇金城路216号,,119.441816,31.728289,2.89E-06,,
索科赛斯（江苏）机械科技有限公司,存续,1000,金坛区,汽车制造业,江苏省常州市金坛区金坛大道58号,,119.441816,31.728289,1.44E-06,,
江苏英格尔减速机有限公司,存续,1000,金坛区,通用设备制造业,江苏省常州市金坛区朱林镇红旗圩村委东坵桥505-46号,,119.572681,31.742384,1.44E-06,,
江苏华尔升玻璃科技有限公司,存续,1000,金坛区,非金属矿物制品业,江苏省常州市金坛区金城南路38号,,119.553634,31.758567,1.44E-06,,
常州浩源兴隆电子科技有限公司,存续,1019,金坛区,电气机械和器材制造业,江苏省常州市金坛区西门大街110栋101室,,119.463041,31.782629,1.47E-06,,
江苏巨人焊接有限公司,存续,1500,金坛区,通用设备制造业,江苏省常州市金坛区江南路32号,,119.553471,31.760246,2.17E-06,,
常州中腾轨道交通装备有限公司,存续,1900,金坛区,铁路、船舶、航空航天和其他运输设备制造业,江苏省常州市金坛区金城镇丹凤西路10号,,119.558882,31.759759,2.74E-06,,
常州市状科电器有限公司,存续,3500,金坛区,电气机械和器材制造业,江苏省常州市金坛区金城镇西环二路59号,,119.560896,31.760784,5.05E-06,,
常州金坛志强机械有限公司,存续,1000,金坛区,通用设备制造业,江苏省常州市金坛区北环西路130号,,119.560896,31.760784,1.44E-06,,
常州中驰车业科技有限公司,存续,1000,金坛区,汽车制造业,江苏省常州市金坛区洮西集镇西街18号,,119.458223,31.743045,1.44E-06,,
常州金坛天源电气成套设备有限公司,存续,1200,金坛区,通用设备制造业,江苏省常州市金坛区南环二路30号,,119.561205,31.761331,1.73E-06,,
江苏拜尔土木工程仪器有限公司,存续,1186,金坛区,仪器仪表制造业,江苏省常州市金坛区儒林镇沿河西路36号,,119.560896,31.760784,1.71E-06,,
常州司美特节能建材有限公司,在业,1000,金坛区,非金属矿物制品业,江苏省常州市金坛区金城镇临港路76号,,119.453625,31.737174,1.44E-06,,
常州市宇达机械有限公司,存续,2000,金坛区,通用设备制造业,江苏省常州市金坛区临港路76号,,119.453625,31.737174,2.89E-06,,
常州泽阳新能源有限公司,存续,1000,金坛区,电气机械和器材制造业,江苏省常州市金坛区临港路76号,,119.561906,31.761916,1.44E-06,,
江苏金濠新能源科技有限公司,存续,2000,金坛区,电气机械和器材制造业,江苏省常州市金坛区良常西路308号,,119.582962,31.741958,2.89E-06,,
江苏金鹏汽车座椅有限公司,存续,1200,金坛区,汽车制造业,江苏省常州市金坛区丹凤路15号,,119.562014,31.762267,1.73E-06,,
常州市金坛舜达建筑材料有限公司,存续,1000,金坛区,非金属矿物制品业,江苏省常州市金坛区金城镇白塔路613号,,119.588875,31.732302,1.44E-06,,
常州金坛万杰电器有限公司,存续,1020,金坛区,电气机械和器材制造业,江苏省常州市金坛区良常西路8号,,119.59237,31.719918,1.47E-06,,
江苏弘盈轩钢结构有限公司,存续,1050,金坛区,金属制品业,江苏省常州市金坛区西环一路8号,,119.558038,31.76564,1.52E-06,,
江苏磁源动力科技有限公司,存续,2000,金坛区,电气机械和器材制造业,江苏省常州市金坛北门大街1号,,119.582861,31.745377,2.89E-06,,
江苏正図转印膜科技有限公司,存续,1914,金坛区,橡胶和塑料制品业,江苏省常州市金坛区良常中路249号37号楼,,119.556019,31.767158,2.76E-06,,
常州市晟兴电器有限公司,存续,1000,金坛区,电气机械和器材制造业,江苏省常州市金坛区良常中路269号,,119.464741,31.737637,1.44E-06,,
常州磐云精密机械有限公司,存续,1000,金坛区,通用设备制造业,江苏省常州市金坛区金城镇良常中路249号25号楼2号,,119.565711,31.76212,1.44E-06,,
江苏文嘉勄木塑装备制造有限公司,存续,1000,金坛区,通用设备制造业,江苏省常州市金坛区指前镇下新河集镇101-2号,,119.557683,31.767097,1.44E-06,,
安普汽车部件（江苏）有限公司,存续,1000,金坛区,汽车制造业,江苏省常州市金坛区西城街道仓房小区14-2号,,119.557683,31.767097,1.44E-06,,
江苏金动动力机械有限公司,存续,1000,金坛区,通用设备制造业,江苏省常州市金坛区金西工业园朱延路1号,,119.57211,31.75795,1.44E-06,,
常州金坛赛亚机械有限公司,存续,1000,金坛区,通用设备制造业,江苏省常州市金坛区良常中路249号28-1号,,119.57211,31.75795,1.44E-06,,
常州市金淮建材有限公司,存续,1000,金坛区,非金属矿物制品业,江苏省常州市金坛区朱林镇朱林村山城88号,,119.446206,31.730583,1.44E-06,,
常州市成林建材有限公司,存续,1000,金坛区,非金属矿物制品业,江苏省常州市金坛区朱林镇朱林村委巷头村68号,,119.446206,31.730583,1.44E-06,,
常州蓝铁精工有限公司,存续,1000,金坛区,通用设备制造业,江苏省常州市金坛区凤凰城经济工业园25号东侧,,119.446206,31.730583,1.44E-06,,
常州中鑫光伏有限公司,存续,1000,金坛区,电气机械和器材制造业,江苏省常州市金坛区薛埠镇工业园区东环一路118-2号,,119.589915,31.737985,1.44E-06,,
常州市凯斯特汽车附件有限公司,存续,1000,金坛区,汽车制造业,江苏省常州市金坛区西城路103号,,119.59028,31.73752,1.44E-06,,
常州金坛旭东机械配件有限公司,存续,1000,金坛区,通用设备制造业,江苏省常州市金坛区良常路268号-27,,119.59028,31.73752,1.44E-06,,
江苏春宇精密机械有限公司,存续,1000,金坛区,通用设备制造业,江苏省常州市金坛区白塔路2777号,,119.56141,31.766763,1.44E-06,,
江苏亨泰汽车零部件有限公司,存续,3000,金坛区,汽车制造业,江苏省常州市金坛区金坛大道58号,,119.552197,31.771569,4.33E-06,,
江苏东禾电声配件有限公司,存续,1914,金坛区,电气机械和器材制造业,江苏省常州市金坛区薛埠镇工业集中区东环一路8号,,119.55664,31.770213,2.76E-06,,
江苏宝骏光电材料有限公司,存续,1000,金坛区,电气机械和器材制造业,江苏省常州市金坛区红山路28号,,119.55664,31.770213,1.44E-06,,
常州金坛金军动力机械有限公司,存续,1000,金坛区,通用设备制造业,江苏省常州市金坛区上元路5号,,119.553537,31.771536,1.44E-06,,
常州广裕橡塑科技有限公司,存续,3776734061,金坛区,橡胶和塑料制品业,江苏省常州市金坛区金城镇红山路30号,,119.446542,31.735923,5.45E+00,,
协成（江苏）安全护栏有限公司,存续,1276,金坛区,金属制品业,江苏省常州市金坛区金城工业园区红山路31号,,119.591,31.742225,1.84E-06,,
江苏新春兰科学仪器有限公司,存续,1000,金坛区,仪器仪表制造业,江苏省常州市金坛区丹阳门北路9-G号,,119.554587,31.771579,1.44E-06,,
常州金坛盛泰门窗有限公司,存续,2000,金坛区,金属制品业,江苏省常州市金坛区上元路3号,,119.563703,31.767172,2.89E-06,,
常州瑞联新材料有限公司,存续,1000,金坛区,橡胶和塑料制品业,江苏省常州市金坛区金城镇红山路29号,,119.563703,31.767172,1.44E-06,,
常州威斯双联科技有限公司,存续,1449511368,金坛区,橡胶和塑料制品业,江苏省常州市金坛区金城镇红山路29号,,119.553505,31.772129,2.09E+00,,
江苏普雷特塑料包装有限公司,存续,1858,金坛区,橡胶和塑料制品业,江苏省常州市金坛区丹凤路55号,,119.574714,31.759161,2.68E-06,,
常州市金坛区医用塑料厂,存续,2000,金坛区,橡胶和塑料制品业,江苏省常州市金坛区金城镇工业集中区丹凤路55号,,119.564497,31.767175,2.89E-06,,
常州市金坛大地自动化仪器厂,存续,1200,金坛区,仪器仪表制造业,江苏省常州市金坛区金城镇东门大街384号,,119.561663,31.768849,1.73E-06,,
江苏路强智慧交通科技有限公司,存续,4500,金坛区,汽车制造业,江苏省常州市金坛区朱林镇龙溪大道99-2号,,119.441816,31.728289,6.50E-06,,
江苏梓源汽车科技有限公司,存续,3000,金坛区,汽车制造业,江苏省常州市金坛区朱林镇龙溪大道99-8号,,119.441816,31.728289,4.33E-06,,
常州品禾金属制品有限公司,存续,1500,金坛区,金属制品业,江苏省常州市金坛区朱林镇龙溪大道99号,,119.441816,31.728289,2.17E-06,,
江苏恒鼎汽车科技有限公司,存续,3000,金坛区,汽车制造业,江苏省常州市金坛区朱林镇龙溪大道99-8号,,119.556388,31.747531,4.33E-06,,
常州华宇混凝土有限公司,存续,1000,金坛区,非金属矿物制品业,江苏省常州市金坛区金城镇金宜路28号,,119.444388,31.735701,1.44E-06,,
常州欧凡建材有限公司,存续,3000,金坛区,非金属矿物制品业,江苏省常州市金坛区金宜路28号,,119.444388,31.735701,4.33E-06,,
江苏源源汽车零部件有限公司,存续,3000,金坛区,汽车制造业,江苏省常州市金坛区金城镇白塔工业集中区金宜路1号,,119.567756,31.772187,4.33E-06,,
江苏新凯源汽车零部件制造有限公司,存续,3000,金坛区,汽车制造业,江苏省常州市金坛区金城镇白塔工业集中区金宜路1号,,119.597897,31.723247,4.33E-06,,
常州汇宸汽车部件有限公司,存续,1000,金坛区,汽车制造业,江苏省常州市金坛区金城镇白塔工业集中区金宜路1号,,119.57414,31.762799,1.44E-06,,
常州市金坛军荣机械有限公司,存续,1980,金坛区,通用设备制造业,江苏省常州市金坛区金城镇红山路23-3号,,119.587711,31.74945,2.86E-06,,
江苏恒远仪器有限公司,存续,1000,金坛区,仪器仪表制造业,江苏省常州市金坛区金城工业园区盐港路98号,,119.556388,31.747531,1.44E-06,,
常州市金云精密机械配件有限公司,存续,3020,金坛区,通用设备制造业,江苏省常州市金坛区金城镇怒江路18号,,119.5746,31.762782,4.36E-06,,
江苏正名智能科技有限公司,存续,1500,金坛区,电气机械和器材制造业,江苏省常州市金坛区金城镇荆元路75号-2,,119.440239,31.726294,2.17E-06,,
江苏华亨建材科技有限公司,存续,1122,金坛区,非金属矿物制品业,江苏省常州市金坛区盐港路88号,,119.559688,31.771945,1.62E-06,,
日正升汽车科技（常州）有限公司,存续,3000,金坛区,汽车制造业,江苏省常州市金坛区朱林镇朱武路5号,,119.463451,31.738925,4.33E-06,,
常州一工新材料科技有限公司,存续,1000,金坛区,橡胶和塑料制品业,江苏省常州市金坛区盐港路51号,,119.43998,31.730152,1.44E-06,,
江苏威龙包装材料有限公司,存续,1000,金坛区,橡胶和塑料制品业,江苏省常州市金坛区红山路9号,,119.464741,31.737637,1.44E-06,,
江苏圣迈亿密封件有限公司,存续,1000,金坛区,通用设备制造业,江苏省常州市金坛区红山路2号,,119.440239,31.726294,1.44E-06,,
常州满鑫机械科技有限公司,存续,1000,金坛区,通用设备制造业,江苏省常州市金坛区金城镇白塔路2806号,,119.567057,31.770617,1.44E-06,,
常州市金坛耐思得自行车有限公司,存续,2000,金坛区,铁路、船舶、航空航天和其他运输设备制造业,江苏省常州市金坛区金西工业园118号,,119.438383,31.728182,2.89E-06,,
江苏鹏泰塑业科技有限公司,存续,1500,金坛区,橡胶和塑料制品业,江苏省常州市金坛区金城镇西园路1号,,119.567057,31.770617,2.17E-06,,
江苏鹏德保温包装材料有限公司,存续,2000,金坛区,非金属矿物制品业,江苏省常州市金坛区朱林镇永兴南路28号,,119.595244,31.743199,2.89E-06,,
常州思泉汽车科技有限公司,存续,1000,金坛区,汽车制造业,江苏省常州市金坛区朱林镇永兴南路32号,,119.5992,31.735269,1.44E-06,,
江苏顺发塑业有限公司,存续,1000,金坛区,橡胶和塑料制品业,江苏省常州市金坛区朱林镇金西工业园永兴南路26号,,119.595932,31.742802,1.44E-06,,
常州辉友金属材料有限公司,存续,1300,金坛区,金属制品业,江苏省常州市金坛区朱林镇创业路77号,,119.595932,31.742802,1.88E-06,,
江苏羽翼铸造有限公司,存续,1500,金坛区,金属制品业,江苏省常州市金坛区朱林镇金西工业园创业路55号,,119.595932,31.742802,2.17E-06,,
常州远方卓越汽车部件有限公司,存续,2000,金坛区,汽车制造业,江苏省常州市金坛区盐港中路138号,,119.595932,31.742802,2.89E-06,,
常州市金坛成龙橡塑制品有限公司,存续,2198,金坛区,橡胶和塑料制品业,江苏省常州市金坛区白塔集镇南(丹金公路西侧),,119.595932,31.742802,3.17E-06,,
江苏永展汽车零部件有限公司,存续,1000,金坛区,汽车制造业,江苏省常州市金坛区薛埠镇工业园区东环二路38号,,119.595932,31.742802,1.44E-06,,
江苏金榆科技集团汽车电子有限公司,存续,1668,金坛区,仪器仪表制造业,江苏省常州市金坛区丹阳门北路张角山8号,,119.595932,31.742802,2.41E-06,,
江苏科豪智能科技有限公司,存续,1000,金坛区,仪器仪表制造业,江苏省常州市金坛区朱林镇金西工业园五联路99号,,119.595932,31.742802,1.44E-06,,
常州市荣科电器有限公司,存续,1000,金坛区,电气机械和器材制造业,江苏省常州市金坛区盐港中路121号,,119.595932,31.742802,1.44E-06,,
江苏法勒卫浴有限公司,存续,1000,金坛区,金属制品业,江苏省常州市金坛区朱林永兴路68号,,119.43685,31.7281,1.44E-06,,
常州腾程电力成套设备有限公司,存续,4800,金坛区,电气机械和器材制造业,江苏省常州市金坛区薛埠镇工业园区东环二路45号,,119.567756,31.772187,6.93E-06,,
江苏鹤鸿汽车科技有限公司,存续,3000,金坛区,汽车制造业,江苏省常州市金坛区朱林镇龙溪大道219号,,119.567756,31.772187,4.33E-06,,
凯明（常州）新材料科技有限公司,存续,1500,金坛区,汽车制造业,江苏省常州市金坛区朱林镇龙溪大道209号,,119.567756,31.772187,2.17E-06,,
常州银丰电力装备有限公司,存续,2000,金坛区,电气机械和器材制造业,江苏省常州市金坛区金西工业园22号,,119.55664,31.770213,2.89E-06,,
常州麦丽素交通科技有限公司,存续,1000,金坛区,汽车制造业,江苏省常州市金坛区朱林镇龙溪大道199号,,119.567756,31.772187,1.44E-06,,
江苏荣科塑业科技有限公司,存续,1000,金坛区,橡胶和塑料制品业,江苏省常州市金坛区朱林镇永顺路2号,,119.440239,31.726294,1.44E-06,,
江苏瑞禾测控有限公司,存续,1000,金坛区,仪器仪表制造业,江苏省常州市金坛区华达名都43幢14号,,119.597897,31.723247,1.44E-06,,
江苏伊思灵双第弹簧有限公司,存续,1800,金坛区,金属制品业,江苏省常州市金坛区金城镇工业集中区西城路127号,,119.56754,31.768552,2.60E-06,,
江苏沪诚测控技术有限责任公司,存续,1000,金坛区,铁路运输业,江苏省常州市金坛区朱林镇金西工业园永顺路128号,,119.56754,31.768552,1.44E-06,,
江苏盛蓝仪器制造有限公司,存续,1000,金坛区,仪器仪表制造业,江苏省常州市金坛区北环东路29号,,119.605974,31.727413,1.44E-06,,
中禾（江苏）集成房屋科技有限公司,在业,1000,金坛区,金属制品业,江苏省常州市金坛区华城中路138号,,119.597897,31.723247,1.44E-06,,
常州市亚泰工程材料有限公司,存续,1000,金坛区,金属制品业,江苏省常州市金坛区左邻右里49幢108室,,119.597897,31.723247,1.44E-06,,
常州市金坛华达市政工程有限公司,存续,2000,金坛区,金属制品业,江苏省常州市金坛区华城中路168号,,119.597897,31.723247,2.89E-06,,
常州法塔铝铸造设备有限公司,存续,1000,金坛区,通用设备制造业,江苏省常州市金坛区华城中路168号,,119.597897,31.723247,1.44E-06,,
常州捷尔泰金属制品有限公司,存续,1000,金坛区,金属制品业,江苏省常州市金坛区华城中路168号,,119.597897,31.723247,1.44E-06,,
常州瑞安普新材料有限公司,存续,14286,金坛区,橡胶和塑料制品业,江苏省常州市金坛区华城中路168号,,119.597897,31.723247,2.06E-05,,
常州市福欧车辆配件有限公司,存续,1000,金坛区,汽车制造业,江苏省常州市金坛区华城中路168号,,119.597897,31.723247,1.44E-06,,
常州日研精密机械有限公司,存续,1000,金坛区,通用设备制造业,江苏省常州市金坛区华城中路168号,,119.495773,31.614834,1.44E-06,,
祥晟塑业（常州）有限公司,存续,1000,金坛区,橡胶和塑料制品业,江苏省常州市金坛区华城中路168号,,119.435576,31.684927,1.44E-06,,
常州金仕达汽配科技有限公司,存续,3000,金坛区,汽车制造业,江苏省常州市金坛区华城中路168号,,119.437,31.684714,4.33E-06,,
常州市环球电力机械有限公司,存续,1000,金坛区,电气机械和器材制造业,江苏省常州市金坛区华城中路168号,,119.488638,31.638694,1.44E-06,,
常州久正汽车内饰科技有限公司,存续,3000,金坛区,汽车制造业,江苏省常州市金坛区华城中路168号,,119.43278,31.735533,4.33E-06,,
常州市吉驰汽车配件有限责任公司,存续,2485,金坛区,汽车制造业,江苏省常州市金坛区华城中路168号,,119.561522,31.782431,3.59E-06,,
江苏杰浩现代农业装备有限公司,存续,1000,金坛区,通用设备制造业,江苏省常州市金坛区华城中路168号,,119.503614,31.633143,1.44E-06,,
江苏亮舟防爆电气有限公司,存续,1500,金坛区,电气机械和器材制造业,江苏省常州市金坛区朱林镇龙溪大道196号,,119.503614,31.633143,2.17E-06,,
江苏德林汽车零部件有限公司,存续,1000,金坛区,汽车制造业,江苏省常州市金坛区金城镇盐港中路69号,,119.503614,31.633143,1.44E-06,,
江苏艾尔发减速机有限公司,存续,1000,金坛区,通用设备制造业,江苏省常州市金坛区荆元路69号,,119.600601,31.753384,1.44E-06,,
常州市金坛林泉建材厂,存续,1000,金坛区,非金属矿物制品业,江苏省常州市金坛区朱林镇巷头村,,119.602036,31.751158,1.44E-06,,
江苏德道汽车科技有限公司,存续,1000,金坛区,汽车制造业,江苏省常州市金坛区金城镇盐港中路69号7幢,,119.602089,31.751429,1.44E-06,,
中之捷（常州）汽车零部件再制造有限公司,存续,2000,金坛区,汽车制造业,江苏省常州市金坛区朱林镇五联路99号,,119.468507,31.78,2.89E-06,,
常州金禾新能源科技有限公司,存续,1000,金坛区,电气机械和器材制造业,江苏省常州市金坛区晨风路900号8号楼102室,,119.596691,31.759463,1.44E-06,,
绿芸加（常州）新材料有限公司,存续,2000,金坛区,橡胶和塑料制品业,江苏省常州市金坛区丹阳门北路99号,,119.474814,31.638587,2.89E-06,,
常州蒙利瑞电工材料有限公司,存续,1000,金坛区,电气机械和器材制造业,江苏省常州市金坛区朱林镇龙溪大道277号,,119.50232,31.629961,1.44E-06,,
江苏瑞波塑料科技有限公司,存续,1000,金坛区,汽车制造业,江苏省常州市金坛区长荡湖科技创业园科创路101-33号,,119.50232,31.629961,1.44E-06,,
江苏天鑫机械科技有限公司,存续,2000,金坛区,通用设备制造业,江苏省常州市金坛区金西工业园创业路88号,,119.50232,31.629961,2.89E-06,,
江苏绿润新能源科技有限公司,存续,1000,金坛区,汽车制造业,江苏省常州市金坛区长荡湖科技创业园科创路101-8号,,119.50232,31.629961,1.44E-06,,
江苏尚农数字科技发展有限公司,存续,1000,金坛区,仪器仪表制造业,江苏省常州市金坛区长荡湖科技创业园科创路101-171号,,119.611667,31.740208,1.44E-06,,
江苏赛亿新能源科技有限公司,存续,3000,金坛区,电气机械和器材制造业,江苏省常州市金坛区长荡湖科技创业园科创路101-161号,,119.458843,31.777019,4.33E-06,,
常州永合电力设备有限公司,存续,1100,金坛区,电气机械和器材制造业,江苏省常州市金坛区朱林镇唐王南大街60号,,119.458843,31.777019,1.59E-06,,
江苏科远建材有限公司,存续,1000,金坛区,非金属矿物制品业,江苏省常州市金坛区直溪镇马脚山,,119.458843,31.777019,1.44E-06,,
常州市金坛南金机床有限公司,存续,1000,金坛区,通用设备制造业,江苏省常州市金坛区西岗镇唐王南大街66号,,119.458843,31.777019,1.44E-06,,
上海建工常州建亚建筑构件制品有限公司,存续,4500,金坛区,非金属矿物制品业,江苏省常州市金坛区金城镇圩门路19号,,119.468766,31.641677,6.50E-06,,
常州麦格耐特仪器有限公司,存续,1000,金坛区,仪器仪表制造业,江苏省常州市金坛区西城街道岸头村委新坝上501号,,119.471656,31.6395,1.44E-06,,
江苏新立方板业有限公司,存续,1000,金坛区,金属制品业,江苏省常州市金坛区指前港园区守凤湾路8号,,119.501226,31.629726,1.44E-06,,
常州市徐随工程机械有限公司,存续,2000,金坛区,通用设备制造业,江苏省常州市金坛区指前港园区守凤湾路69号,,119.607719,31.748878,2.89E-06,,
江苏唯客邦装饰材料有限公司,存续,1000,金坛区,金属制品业,江苏省常州市金坛区指前港园区守凤湾路8号,,119.605172,31.753356,1.44E-06,,
常州睿阳机械有限公司,存续,2000,金坛区,通用设备制造业,江苏省常州市金坛区指前港园区守凤湾路69号,,119.4961,31.62935,2.89E-06,,
江苏智越电池动力系统有限公司,存续,1000,金坛区,汽车制造业,江苏省常州市金坛区朱林镇晨风路88号,,119.4961,31.62935,1.44E-06,,
江苏鑫浩仪器有限公司,存续,1000,金坛区,仪器仪表制造业,江苏省常州市金坛区晨风路57-8号,,119.4961,31.62935,1.44E-06,,
常州梅香仪器有限公司,存续,1000,金坛区,仪器仪表制造业,江苏省常州市金坛区晨风路57-7号,,119.613642,31.739759,1.44E-06,,
常州市金坛瑞凌焊接器材有限公司,在业,3900,金坛区,通用设备制造业,江苏省常州市金坛区指前镇社头集镇镇东路188号,,119.46472,31.782798,5.63E-06,,
江苏齐强新材料有限公司,存续,1000,金坛区,非金属矿物制品业,江苏省常州市金坛区指前镇工业集中区纬三路1号,,119.606978,31.752947,1.44E-06,,
江苏中谨精密机械有限公司,存续,1000,金坛区,通用设备制造业,江苏省常州市金坛区汇贤南路3号物管楼,,119.463041,31.782629,1.44E-06,,
艾贝思车辆科技（常州）有限公司,存续,1000,金坛区,汽车制造业,江苏省常州市金坛区汇贤南路3号物管楼,,119.613642,31.739759,1.44E-06,,
江苏思耐尔传动科技有限公司,存续,2000,金坛区,电气机械和器材制造业,江苏省常州市金坛区直溪镇工业园区水南路18号,,119.46672,31.785212,2.89E-06,,
江苏永易智能停车设备有限公司,存续,1000,金坛区,汽车制造业,江苏省常州市金坛区直溪镇工业园区水南路8号,,119.46672,31.785212,1.44E-06,,
江苏海尚汽车科技有限公司,存续,2000,金坛区,汽车制造业,江苏省常州市金坛区直溪镇工业园区水南路8号,,119.46672,31.785212,2.89E-06,,
常州清威汽车制造技术有限公司,在业,1000,金坛区,汽车制造业,江苏省常州市金坛区直溪镇工业集中区水南路8号,,119.46672,31.785212,1.44E-06,,
常州汉维机械设备有限公司,存续,1000,金坛区,通用设备制造业,江苏省常州市金坛区直溪镇工业园区水南路18号,,119.46672,31.785212,1.44E-06,,
江苏华荣绝缘材料有限公司,存续,2500,金坛区,电气机械和器材制造业,江苏省常州市金坛区指前镇社头集镇社兴东路34号,,119.46672,31.785212,3.61E-06,,
中成（江苏）集成房屋科技有限公司,存续,1000,金坛区,金属制品业,江苏省常州市金坛区汇贤南路2号C幢,,119.611139,31.7483,1.44E-06,,
江苏国瓷金盛陶瓷科技有限公司,存续,1000,金坛区,非金属矿物制品业,江苏省常州市金坛经济开发区思母路1号,,119.46018,31.781849,1.44E-06,,
江苏恒昱机械科技有限公司,存续,1000,金坛区,通用设备制造业,江苏省常州市金坛区晨风路877号,,119.973987,31.810689,1.44E-06,,
常州金坛恒丰仪器制造有限公司,存续,1000,金坛区,仪器仪表制造业,江苏省常州市金坛区思母路6号,,119.608904,31.752946,1.44E-06,,
常州恒阳建材科技有限公司,存续,3200,金坛区,非金属矿物制品业,江苏省常州市金坛区指前镇兴旺路1号,,119.621521,31.714006,4.62E-06,,
江苏云捷新材料有限公司,存续,1000,金坛区,橡胶和塑料制品业,江苏省常州市金坛区指前港园区兴旺路88-26号,,119.604083,31.760383,1.44E-06,,
江苏益峰高分子材料有限公司,存续,1000,金坛区,橡胶和塑料制品业,江苏省常州市金坛区指前镇指前港园区兴旺路88号,,119.46018,31.781849,1.44E-06,,
江苏金坛康达有限公司,存续,143015,金坛区,非金属矿物制品业,江苏省常州市金坛区电厂路28号,,119.610608,31.751899,2.07E-04,,
常州市金坛圣通路面集料有限公司,存续,2000,金坛区,非金属矿物制品业,江苏省常州市金坛区薛埠镇九江口(常溧公路旁),,119.59684,31.769335,2.89E-06,,
江苏广信时代玻璃科技有限公司,存续,1000,金坛区,非金属矿物制品业,江苏省常州市金坛区良常东路109-1号,,119.59684,31.769335,1.44E-06,,
江苏天冀输送机械有限公司,存续,1000,金坛区,通用设备制造业,江苏省常州市金坛区直溪镇工业集中区东直里路68号,,119.556388,31.747531,1.44E-06,,
常州市腾创金属制品有限公司,存续,1200,金坛区,金属制品业,江苏省常州市金坛区指前镇社头集镇镇东路108号,,119.468606,31.78813,1.73E-06,,
常州长海焊材有限公司,存续,1000,金坛区,通用设备制造业,江苏省常州市金坛区社头镇工业集中区,,119.60236,31.76551,1.44E-06,,
常州现代混凝土有限公司,存续,1000,金坛区,非金属矿物制品业,江苏省常州市金坛区良常东路99号,,119.4961,31.62935,1.44E-06,,
江苏松上电机有限公司,存续,1000,金坛区,电气机械和器材制造业,江苏省常州市金坛区直溪镇工业集中区兴业大道5号,,119.622376,31.7133,1.44E-06,,
常州市盛科汽车配件有限公司,存续,1000,金坛区,汽车制造业,江苏省常州市金坛区直溪镇工业集中区兴业大道1号,,119.556388,31.747531,1.44E-06,,
江苏吉丰自动化设备有限公司,存续,1000,金坛区,通用设备制造业,江苏省常州市金坛区直溪镇工业集中区兴业大道6号,,119.556388,31.747531,1.44E-06,,
常州市兴佳诚汽车部件有限公司,存续,1000,金坛区,汽车制造业,江苏省常州市金坛区直溪镇兴业大道88-1号,,119.623571,31.723254,1.44E-06,,
常州米特汽车零部件有限公司,存续,1000,金坛区,汽车制造业,江苏省常州市金坛区直溪镇工业集中区兴业大道3号,,119.607822,31.76008,1.44E-06,,
常州金坛立方混凝土有限公司,存续,1300,金坛区,非金属矿物制品业,江苏省常州市金坛区电厂路28号,,119.556388,31.747531,1.88E-06,,
常州市三洋精密制版有限公司,存续,1000,金坛区,金属制品业,江苏省常州市金坛区汇贤中路58号,,119.556388,31.747531,1.44E-06,,
江苏君达钢结构有限公司,存续,1000,金坛区,金属制品业,江苏省常州市金坛区直溪镇工业集中区直里路16号,,119.556388,31.747531,1.44E-06,,
江苏新华城水泥制品有限公司,存续,2080,金坛区,非金属矿物制品业,江苏省常州市金坛区华阳北路15号,,119.556388,31.747531,3.00E-06,,
江苏益昇新能源科技有限公司,存续,1000,金坛区,电气机械和器材制造业,江苏省常州市金坛经济开发区汇贤中路89号,,119.556388,31.747531,1.44E-06,,
常州易荣达电杆有限公司,存续,3600,金坛区,非金属矿物制品业,江苏省常州市金坛区良常路58号,,119.556388,31.747531,5.20E-06,,
江苏凯灵汽车电器有限公司,存续,1000,金坛区,汽车制造业,江苏省常州市金坛经济开发区金胜东路8号,,119.597897,31.723247,1.44E-06,,
江苏天鹅动力机械集团有限公司,存续,3000,金坛区,通用设备制造业,江苏省常州市金坛区华城东路1号,,119.597897,31.723247,4.33E-06,,
常州瑞华电力电子器件有限公司,存续,2000,金坛区,电气机械和器材制造业,江苏省常州市金坛区指前镇社头集镇工业集中区8号,,119.61624,31.748569,2.89E-06,,
江苏伟曜塑胶科技有限公司,存续,1000,金坛区,橡胶和塑料制品业,江苏省常州市金坛区金城镇盐港东路39号B16,,119.45433,31.795067,1.44E-06,,
江苏斯宾纳精密机械制造有限公司,存续,1018,金坛区,通用设备制造业,江苏省常州市金坛区金城镇盐港东路39号B11,,119.413473,31.730843,1.47E-06,,
江苏宝昂包装材料有限公司,存续,1000,金坛区,橡胶和塑料制品业,江苏省常州市金坛区盐港东路39号4幢6号,,119.45433,31.795067,1.44E-06,,
常州瑞通光伏设备有限公司,存续,1500,金坛区,电气机械和器材制造业,江苏省常州市金坛区直溪镇工业园区兴业大道17号,,119.418072,31.734878,2.17E-06,,
江苏尧塘花木市场有限公司,存续,3000,金坛区,非金属矿物制品业,江苏省常州市金坛区尧塘镇金武路8号,,119.45433,31.795067,4.33E-06,,
常州苏创自动化科技有限公司,存续,1000,金坛区,仪器仪表制造业,江苏省常州市金坛区金城镇盐港东路39号5幢4号,,119.6012,31.773458,1.44E-06,,
江苏公福石墨有限公司,存续,1000,金坛区,非金属矿物制品业,江苏省常州市金坛区指前港园区兴旺路88-70号,,119.382381,31.717564,1.44E-06,,
常州市浩德汽车配件有限公司,存续,1000,金坛区,汽车制造业,江苏省常州市金坛区金城镇盐港东路39号13幢1号,,119.620465,31.748441,1.44E-06,,
江苏惠斯福自动化科技有限公司,存续,1000,金坛区,仪器仪表制造业,江苏省常州市金坛区金城镇盐港东路39号7幢4号,,119.598996,31.776306,1.44E-06,,
常州市金坛区圣通混凝土构件有限公司,存续,1600,金坛区,非金属矿物制品业,江苏省常州市金坛区良常路28号,,119.620722,31.748462,2.31E-06,,
江苏凯翔精密工具有限公司,存续,1000,金坛区,金属制品业,江苏省常州市金坛区金城镇盐港东路39号7幢8号,,119.420649,31.752409,1.44E-06,,
常州市福莱美汽车零部件有限公司,存续,1900,金坛区,汽车制造业,江苏省常州市金坛区金城镇盐港东路39号2幢4号,,119.417201,31.676577,2.74E-06,,
江苏泛亚工程仪器有限公司,在业,1000,金坛区,仪器仪表制造业,江苏省常州市金坛区盐港东路39号7幢1号,,119.455663,31.788919,1.44E-06,,
江苏航硕金属制品有限公司,存续,1000,金坛区,金属制品业,江苏省常州市金坛区金城镇丹金路26号,,119.45482,31.788515,1.44E-06,,
海睿斯（江苏）机械科技有限公司,存续,2000,金坛区,通用设备制造业,江苏省常州市金坛区金城镇丹金路26号,,119.60202,31.773251,2.89E-06,,
江苏大力士云石护理材料有限公司,存续,1500,金坛区,橡胶和塑料制品业,江苏省常州市金坛区白塔镇工业集中区丹金路6号,,119.623123,31.676548,2.17E-06,,
江苏圣鑫光伏科技有限公司,存续,2720,金坛区,电气机械和器材制造业,江苏省常州市金坛区直溪镇工业集中区直东路188号,,119.461541,31.793149,3.93E-06,,
江苏维旺达光伏设备科技有限公司,存续,1000,金坛区,电气机械和器材制造业,江苏省常州市金坛区直溪镇工业集中区横四路18号,,119.622985,31.748589,1.44E-06,,
易合城邦传动设备制造（江苏）有限公司,存续,1000,金坛区,通用设备制造业,江苏省常州市金坛区直溪镇工业集中区兴业大道5号,,119.622188,31.750554,1.44E-06,,
常州市金坛如胜汽车零部件有限公司,存续,1000,金坛区,汽车制造业,江苏省常州市金坛区直溪镇工业集中区西直里路9号,,119.631294,31.723327,1.44E-06,,
江苏沐春智能科技有限公司,存续,1000,金坛区,汽车制造业,江苏省常州市金坛区西直里路9号,,119.631294,31.723327,1.44E-06,,
江苏广豪佳工业设备有限公司,存续,1000,金坛区,通用设备制造业,江苏省常州市金坛区直溪镇工业集中区西直里路6号,,119.498755,31.622089,1.44E-06,,
常州集友电子科技有限公司,存续,1000,金坛区,橡胶和塑料制品业,江苏省常州市金坛区金湖路29号,,119.62389,31.748251,1.44E-06,,
常州市金坛区吴氏建材有限公司,存续,1000,金坛区,非金属矿物制品业,江苏省常州市金坛区薛埠镇花山村208号,,119.623639,31.748614,1.44E-06,,
金坛市金山汽车配件有限公司,存续,1000,金坛区,汽车制造业,江苏省金坛市薛埠镇花山村柳庄151号,,119.623639,31.748614,1.44E-06,,
江苏捷锦门窗科技有限公司,存续,1000,金坛区,金属制品业,江苏省常州市金坛区茅山大道898号,,119.626483,31.742725,1.44E-06,,
江苏壹诺电力器材有限公司,存续,3000,金坛区,电气机械和器材制造业,江苏省常州市金坛区薛埠镇茅山大道1869-3号,,119.624728,31.747321,4.33E-06,,
江苏正晖照明科技有限公司,存续,2000,金坛区,电气机械和器材制造业,江苏省常州市金坛区直溪镇工业集中区1号,,119.630461,31.733061,2.89E-06,,
常州花山化工有限公司,存续,1018,金坛区,橡胶和塑料制品业,江苏省常州市金坛区薛埠镇河口集镇118号,,119.625224,31.748654,1.47E-06,,
常州德博新材料科技有限公司,存续,1000,金坛区,橡胶和塑料制品业,江苏省常州市金坛经济开发区华丰路2号,,119.627777,31.742793,1.44E-06,,
江苏智文华新岩棉有限公司,存续,2000,金坛区,非金属矿物制品业,江苏省常州市金坛区华阳北路129号,,119.625224,31.748654,2.89E-06,,
常州鑫坛电力成套设备有限公司,存续,2800,金坛区,电气机械和器材制造业,江苏省常州市金坛区华丰路6号,,119.413011,31.676855,4.04E-06,,
江苏峨嵋动力机械有限公司,存续,2780,金坛区,通用设备制造业,江苏省常州市金坛区金胜东路28号,,119.633174,31.723479,4.01E-06,,
常州市金诺金属设备科技有限公司,存续,3088,金坛区,金属制品业,江苏省常州市金坛区薛埠镇花山村河口街58号,,119.458101,31.794038,4.46E-06,,
江苏晶众机电有限公司,存续,1000,金坛区,电气机械和器材制造业,江苏省常州市金坛经济开发区华城路288-1号2幢1号,,119.578553,31.795748,1.44E-06,,
江苏恒瑞净化工程设备有限公司,存续,1000,金坛区,通用设备制造业,江苏省常州市金坛区华城路288-1号浚博小微企业园6-3号,,119.625572,31.748761,1.44E-06,,
常州市金坛区丰捷电力科技有限公司,存续,1500,金坛区,电气机械和器材制造业,江苏省常州市金坛区直溪镇工业集中区振兴南路1号,,119.631961,31.733129,2.17E-06,,
江苏溪源汽车科技有限公司,存续,1000,金坛区,汽车制造业,江苏省常州市金坛区直溪工业集中区直东路8号,,119.633992,31.698004,1.44E-06,,
常州金陵电力器材有限公司,存续,1000,金坛区,电气机械和器材制造业,江苏省常州市金坛区金城镇丹金路88号,,119.633992,31.698004,1.44E-06,,
江苏常州泰开新能源科技有限公司,存续,1000,金坛区,汽车制造业,江苏省常州市金坛区直溪镇工业集中区横三路88号,,119.633992,31.698004,1.44E-06,,
江苏瑞鹏电气有限公司,存续,1000,金坛区,电气机械和器材制造业,江苏省常州市金坛区尧塘街道泗庄村委东迪庄288号,,119.633992,31.698004,1.44E-06,,
常州勤创汽车配件有限公司,存续,1000,金坛区,汽车制造业,江苏省常州市金坛区金城镇丹金路77号,,119.628161,31.745964,1.44E-06,,
江苏捷能门窗有限公司,存续,1000,金坛区,金属制品业,江苏省常州市金坛区薛埠镇花山村工业集中区28号,,119.633992,31.698004,1.44E-06,,
江苏品川新能源科技有限公司,存续,1000,金坛区,汽车制造业,江苏省常州市金坛区直溪镇工业集中区亚细路16号,,119.625801,31.750665,1.44E-06,,
江苏海翔新能源科技有限公司,存续,3000,金坛区,电气机械和器材制造业,江苏省常州市金坛区通闸路66号,,119.625989,31.750339,4.33E-06,,
常州市东洋橡塑新材料有限公司,存续,1000,金坛区,橡胶和塑料制品业,江苏省常州市金坛区华丰路68号,,119.454425,31.793607,1.44E-06,,
康诚（江苏）机械制造有限公司,存续,1000,金坛区,通用设备制造业,江苏省常州市金坛区经济开发区华电路8号,,119.454425,31.793607,1.44E-06,,
常州冠荣新型包装材料有限公司,存续,1000,金坛区,橡胶和塑料制品业,江苏省常州市金坛区亿晶路198号,,119.454425,31.793607,1.44E-06,,
常州倍捷塑业科技有限公司,存续,1200,金坛区,橡胶和塑料制品业,江苏省常州市金坛区亿晶路198号,,119.45781,31.793384,1.73E-06,,
常州市合创智能科技有限公司,存续,2000,金坛区,仪器仪表制造业,江苏省常州市金坛区华丰路18号,,119.62883,31.745879,2.89E-06,,
常州金坛金木工程仪器厂,存续,1000,金坛区,仪器仪表制造业,江苏省常州市金坛区华丰路16号,,119.597897,31.723247,1.44E-06,,
常州宇胜土木工程仪器有限公司,存续,1000,金坛区,仪器仪表制造业,江苏省常州市金坛经济开发区华丰路16号,,119.630055,31.742918,1.44E-06,,
常州凯度机电有限公司,存续,2000,金坛区,电气机械和器材制造业,江苏省常州市金坛区华城路286号,,119.630055,31.742918,2.89E-06,,
常州市金坛区华宇电力器材有限公司,存续,1000,金坛区,电气机械和器材制造业,江苏省常州市金坛区金胜东路68号,,119.62883,31.745879,1.44E-06,,
江苏久力机械有限公司,存续,1000,金坛区,通用设备制造业,江苏省常州市金坛区金城镇白塔路1188号,,119.630055,31.742918,1.44E-06,,
常州金坛羊力机械厂,存续,1000,金坛区,通用设备制造业,江苏省常州市金坛区金城镇白塔路1188号,,119.630055,31.742918,1.44E-06,,
江苏金阳玻璃制品有限公司,存续,1000,金坛区,非金属矿物制品业,江苏省常州市金坛区直溪镇工业集中区直茅路6号,,119.629123,31.747367,1.44E-06,,
江苏罗纳尔多仪器制造有限公司,存续,1000,金坛区,仪器仪表制造业,江苏省常州市金坛区金胜东路88号,,119.626967,31.75185,1.44E-06,,
常州益鑫新能源科技有限公司,存续,2800,金坛区,非金属矿物制品业,江苏省常州市金坛经济开发区华城路266号,,119.634616,31.690418,4.04E-06,,
常州市国电聚龙电气技术有限公司,存续,1000,金坛区,电气机械和器材制造业,江苏省常州市金坛区南二环东路1699号,,119.628302,31.751498,1.44E-06,,
常州市沃科科技有限公司,存续,2000,金坛区,橡胶和塑料制品业,江苏省常州市金坛区南二环东路1699号,,119.454367,31.795888,2.89E-06,,
常州扬明实业有限公司,存续,3000,金坛区,铁路、船舶、航空航天和其他运输设备制造业,江苏省常州市金坛区金城镇白塔丹金路118号,,119.635303,31.689399,4.33E-06,,
江苏科泰绝热新材料有限公司,存续,3530,金坛区,橡胶和塑料制品业,江苏省常州市金坛区南二环东路1698号,,119.62821,31.753363,5.10E-06,,
江苏守仁汽车电子科技有限责任公司,存续,1000,金坛区,汽车制造业,江苏省常州市金坛区尧塘街道明湖路359号,,119.494445,31.612456,1.44E-06,,
江苏耀达智造科技有限公司,存续,1000,金坛区,汽车制造业,江苏省常州市金坛经济开发区明湖路365号,,119.630555,31.748977,1.44E-06,,
常州市华永车辆科技有限公司,存续,1000,金坛区,汽车制造业,江苏省常州市金坛区明湖路359号,,119.597897,31.723247,1.44E-06,,
常州市赛尔交通器材有限公司,存续,10944,金坛区,汽车制造业,江苏省常州市金坛经济开发区中兴路81号,,119.630839,31.750614,1.58E-05,,
江苏宏鑫索马传动科技股份有限公司,存续,1000,金坛区,汽车制造业,江苏省常州市金坛区明湖路359号,,119.631387,31.749027,1.44E-06,,
常州艾嵘车辆部件有限公司,存续,1000,金坛区,铁路、船舶、航空航天和其他运输设备制造业,江苏省常州市金坛区明湖路359号,,119.632319,31.74772,1.44E-06,,
江苏盘毂新能源科技有限公司,存续,1000,金坛区,汽车制造业,江苏省常州市金坛区明湖路359号,,119.631062,31.755512,1.44E-06,,
江苏杰瑞尔电器有限公司,存续,1000,金坛区,电气机械和器材制造业,江苏省常州市金坛区华兴路16号,,119.631184,31.750804,1.44E-06,,
江苏鑫田电子科技有限公司,存续,3000,金坛区,电气机械和器材制造业,江苏省常州市金坛区中兴路79号,,119.631184,31.750804,4.33E-06,,
常州溪博汽车科技股份有限公司,存续,1000,金坛区,汽车制造业,江苏省常州市金坛区直溪镇工业集中区亚溪路29号,,119.631184,31.750804,1.44E-06,,
常州惠民机械有限公司,存续,1000,金坛区,通用设备制造业,江苏省常州市金坛区指前镇北湖口路8号,,119.597897,31.723247,1.44E-06,,
江苏久标全屋定制有限公司,存续,1000,金坛区,家具制造业,江苏省常州市金坛经济开发区中兴路56号,,119.630516,31.7537,1.44E-06,,
泰宇新能源材料（常州）有限公司,存续,1000,金坛区,电气机械和器材制造业,江苏省常州市金坛区金龙大道563号4号厂房,,119.456512,31.80021,1.44E-06,,
常州金坛万昌刀具制造有限公司,存续,3617864587,金坛区,金属制品业,江苏省常州市金坛经济开发区中兴路56号,,119.631062,31.755512,5.22E+00,,
江苏慧码检测设备科技有限公司,存续,1000,金坛区,仪器仪表制造业,江苏省常州市金坛经济开发区华城路222号,,119.63231,31.751023,1.44E-06,,
江苏闪码检测设备科技有限公司,存续,1000,金坛区,仪器仪表制造业,江苏省常州市金坛经济开发区华城路222号,,119.456512,31.80021,1.44E-06,,
常州昊虹汽车配件有限公司,存续,2000,金坛区,汽车制造业,江苏省常州市金坛区金胜东路233号,,119.429344,31.781506,2.89E-06,,
华星动力（江苏）有限公司,存续,2000,金坛区,汽车制造业,江苏省常州市金坛区明湖路399号,,119.39531,31.720431,2.89E-06,,
常州铭策机械制造有限公司,存续,1000,金坛区,通用设备制造业,江苏省常州市金坛区明湖路399号,,119.641944,31.731463,1.44E-06,,
常州中迪材料科技有限公司,存续,1000,金坛区,橡胶和塑料制品业,江苏省常州市金坛区华业路139号,,119.634411,31.750786,1.44E-06,,
常州市金坛常达金属构件有限公司,存续,3000,金坛区,金属制品业,江苏省常州市金坛经济开发区中兴路38号,,119.638918,31.739552,4.33E-06,,
江苏腾沅机械科技有限公司,在业,1000,金坛区,铁路、船舶、航空航天和其他运输设备制造业,江苏省常州市金坛经济开发区华丰路116号,,119.638918,31.739552,1.44E-06,,
常州辉思特电子科技有限公司,存续,1000,金坛区,汽车制造业,江苏省常州市金坛区金龙大道563号,,119.638918,31.739552,1.44E-06,,
江苏铂联新能源科技有限公司,存续,2000,金坛区,汽车制造业,江苏省常州市金坛区金龙大道563号,,119.638918,31.739552,2.89E-06,,
江苏中旺门窗幕墙有限公司,存续,2000,金坛区,金属制品业,江苏省常州市金坛区华丰路100号,,119.597897,31.723247,2.89E-06,,
常州崴特环境科技有限公司,存续,1000,金坛区,仪器仪表制造业,江苏省常州市金坛区华兴路150号,,119.63477,31.751114,1.44E-06,,
江苏文天长液压有限公司,存续,1000,金坛区,通用设备制造业,江苏省常州市金坛区恒泰路9号,,119.556388,31.747531,1.44E-06,,
江苏福亿自动化设备有限公司,存续,2350,金坛区,电气机械和器材制造业,江苏省常州市金坛区华兴路211号,,119.634994,31.754057,3.39E-06,,
常州金坛恒发机械配件有限公司,存续,1000,金坛区,通用设备制造业,江苏省常州市金坛区华兴路216号,,119.637289,31.749316,1.44E-06,,
江苏金仕威光电科技有限公司,存续,3000,金坛区,电气机械和器材制造业,江苏省常州市金坛区直溪镇振兴南路123号,,119.584081,31.804109,4.33E-06,,
江苏鑫怡电力设备有限公司,存续,3080,金坛区,电气机械和器材制造业,江苏省常州市金坛区金胜东路198号,,119.584081,31.804109,4.45E-06,,
江苏牛创新能源汽车有限公司,存续,1000,金坛区,汽车制造业,江苏省常州市金坛区金龙大道563号1栋,,119.641392,31.739693,1.44E-06,,
凯翔汽车装备（常州）有限公司,存续,1000,金坛区,汽车制造业,江苏省常州市金坛区晨风路869号,,119.641392,31.739693,1.44E-06,,
常州杰德电力器材有限公司,存续,1000,金坛区,电气机械和器材制造业,江苏省常州市金坛区华丰路158号,,119.640564,31.746742,1.44E-06,,
常州天益遮阳窗饰有限公司,存续,4200,金坛区,金属制品业,江苏省常州市金坛开发区恒泰路8号,,119.393481,31.714538,6.07E-06,,
常州永凯机械制造有限公司,存续,2380,金坛区,通用设备制造业,江苏省常州市金坛经济开发区华兴路116号,,119.583258,31.804971,3.44E-06,,
常州坤锐能源科技有限公司,在业,3000,金坛区,汽车制造业,江苏省常州市金坛区直溪镇直溪集镇振兴南路63号,,119.637819,31.750644,4.33E-06,,
江苏捷尔特智能家具有限公司,存续,1000,金坛区,家具制造业,江苏省常州市金坛区复兴南路18号,,119.63853,31.672768,1.44E-06,,
常州瑞诺车辆部件有限公司,存续,1200,金坛区,汽车制造业,江苏省常州市金坛区恒泰路6号,,119.637488,31.670369,1.73E-06,,
江苏格罗博电气有限公司,存续,32798,金坛区,电气机械和器材制造业,江苏省常州市金坛区恒泰路2号,,119.637488,31.670369,4.74E-05,,
常州市奥亚油泵油嘴有限公司,存续,1000,金坛区,汽车制造业,江苏省常州市金坛区恒泰路5号,,119.597897,31.723247,1.44E-06,,
江苏斯克特工业科技有限公司,存续,1000,金坛区,通用设备制造业,江苏省常州市金坛区恒泰路10号,,119.639474,31.748164,1.44E-06,,
常州市浩哲科技有限公司,存续,1000,金坛区,汽车制造业,江苏省常州市金坛区金龙大道559号,,119.583043,31.806291,1.44E-06,,
常州市鑫愉宝传动部件有限公司,存续,1000,金坛区,通用设备制造业,江苏省常州市金坛区恒泰路1号,,119.640564,31.746742,1.44E-06,,
江苏乐乐照明科技发展有限公司,存续,4600,金坛区,电气机械和器材制造业,江苏省常州市金坛区经济开发区中兴路89号,,119.6012,31.795884,6.64E-06,,
常州常重机械有限公司,存续,1080,金坛区,通用设备制造业,江苏省金坛经济开发区中兴路89号,,119.6012,31.795884,1.56E-06,,
晶电信息材料（江苏）有限公司,存续,32538,金坛区,电气机械和器材制造业,江苏省常州市金坛经济开发区中兴路89号,,119.6012,31.795884,4.70E-05,,
江苏润宇门窗有限公司,存续,1000,金坛区,金属制品业,江苏省常州市金坛区中兴路89号,,119.6012,31.795884,1.44E-06,,
常州市豪迈机械制造有限公司,存续,1200,金坛区,通用设备制造业,江苏省常州市金坛经济开发区中兴路89号,,119.6012,31.795884,1.73E-06,,
常州市金坛区华康家具有限公司,存续,2080,金坛区,家具制造业,江苏省常州市金坛区华兴路133号,,119.6012,31.795884,3.00E-06,,
菲拉克焊接江苏有限公司,存续,2000,金坛区,金属制品业,江苏省常州市金坛区薛埠镇百花东路159号,,119.6385,31.669794,2.89E-06,,
常州玄武动力机械有限公司,存续,3654760742,金坛区,汽车制造业,江苏省常州市金坛区晨风路889号,,119.641153,31.747614,5.28E+00,,
常州茁旺机械制造有限公司,存续,1000,金坛区,通用设备制造业,江苏省常州市金坛区金城镇白塔村委东关村58号,,119.382381,31.717564,1.44E-06,,
常州莱克斯诺传动设备有限公司,存续,396553685,金坛区,通用设备制造业,江苏省常州市金坛区复兴路58号,,119.390397,31.718972,5.73E-01,,
江苏法沃克汽车零部件有限公司,存续,1276,金坛区,汽车制造业,江苏省常州市金坛区复兴路98号,,119.597897,31.723247,1.84E-06,,
常州泓盛混凝土有限公司,存续,2500,金坛区,非金属矿物制品业,江苏省常州市金坛区薛埠镇百花东路168号,,119.642983,31.748049,3.61E-06,,
常州市金坛常湘建材有限公司,存续,2500,金坛区,非金属矿物制品业,江苏省常州市金坛区薛埠镇百花东路168号,,119.642983,31.748049,3.61E-06,,
常州市金坛安达交通设施有限公司,在业,3000,金坛区,铁路、船舶、航空航天和其他运输设备制造业,江苏省常州市金坛经济开发区华兴路168号,,119.649164,31.732207,4.33E-06,,
江苏骏精赛自动化机械有限公司,存续,1000,金坛区,通用设备制造业,江苏省常州市金坛区薛埠镇工业园区凤凰路6号,,119.640731,31.750754,1.44E-06,,
江苏鸿蒙精密机械有限公司,存续,1000,金坛区,通用设备制造业,江苏省常州市金坛区薛埠镇工业园区青春路1号,,119.58677,31.80663,1.44E-06,,
江苏豪旺德实业有限公司,存续,1000,金坛区,橡胶和塑料制品业,江苏省常州市金坛区尧塘镇迎春路35号,,119.389092,31.719166,1.44E-06,,
江苏正清机械科技发展有限公司,存续,2000,金坛区,汽车制造业,江苏省常州市金坛区薛埠镇工业园区南环路6号,,119.635908,31.763173,2.89E-06,,
常州市金坛鸿图橡塑制品有限公司,存续,1000,金坛区,橡胶和塑料制品业,江苏省常州市金坛区尧塘镇水北集镇迎春路35号,,119.63741,31.760704,1.44E-06,,
科升普力汽车科技（江苏）有限公司,存续,1000,金坛区,汽车制造业,江苏省常州市金坛区金湖北路55号,,119.642344,31.751225,1.44E-06,,
常州金坛塑料厂,存续,3600,金坛区,橡胶和塑料制品业,江苏省常州市金坛经济开发区复兴路96号,,119.64296,31.75124,5.20E-06,,
常州金坛卓亚汽车零部件有限公司,存续,1000,金坛区,汽车制造业,江苏省常州市金坛区复兴路98号,,119.388594,31.722044,1.44E-06,,
江苏华一船舶有限公司,存续,2000,金坛区,铁路、船舶、航空航天和其他运输设备制造业,江苏省常州市金坛区薛埠镇工业园区凤凰路1号,,119.388594,31.722044,2.89E-06,,
江苏普惠塑业有限公司,存续,1000,金坛区,橡胶和塑料制品业,江苏省常州市金坛区薛埠镇工业园区凤凰路168号,,119.388594,31.722044,1.44E-06,,
江苏圣而达新型建材有限公司,存续,1000,金坛区,非金属矿物制品业,江苏省常州市金坛区金湖路998号,,119.38869,31.724041,1.44E-06,,
常州鑫晟建材有限公司,存续,1000,金坛区,非金属矿物制品业,江苏省常州市金坛区金湖路998号,,119.492478,31.601609,1.44E-06,,
江苏云烽燃气设备有限公司,存续,2000,金坛区,仪器仪表制造业,江苏省常州市金坛区直溪镇建昌集镇育才路1号,,119.382381,31.717564,2.89E-06,,
常州金翼电力设备有限公司,存续,2000,金坛区,电气机械和器材制造业,江苏省常州市金坛区尧塘镇水北集镇迎春路33号,,119.63853,31.672768,2.89E-06,,
常州中杨建材科技有限公司,存续,1500,金坛区,非金属矿物制品业,江苏省常州市金坛区尧塘镇水北集镇迎春路33号,,119.639416,31.760816,2.17E-06,,
常州瑞华新能源科技有限公司,在业,3000,金坛区,电气机械和器材制造业,江苏省常州市金坛区复兴路299号,,119.387053,31.719724,4.33E-06,,
江苏英诺普精密科技有限公司,存续,2000,金坛区,仪器仪表制造业,江苏省常州市金坛区薛埠镇工业园区青春路3号,,119.640219,31.759867,2.89E-06,,
常州铭泽汽车部件有限公司,存续,1000,金坛区,汽车制造业,江苏省常州市金坛区薛埠镇工业园区庄头路8号,,119.640219,31.759867,1.44E-06,,
常州万容新材料科技有限公司,存续,2000,金坛区,橡胶和塑料制品业,江苏省常州市金坛区薛埠镇工业园区公园路68号,,119.382381,31.717564,2.89E-06,,
斐瑞博机械江苏有限公司,存续,1000,金坛区,通用设备制造业,江苏省常州市金坛经济开发区中塘桥48号,,119.394595,31.670195,1.44E-06,,
江苏力迪汽车科技有限公司,存续,2000,金坛区,汽车制造业,江苏省常州市金坛区金湖北路55号,,119.385263,31.708019,2.89E-06,,
江苏麦森精密机械制造有限公司,存续,3000,金坛区,通用设备制造业,江苏省常州市金坛金胜东路216号,,119.385313,31.7164,4.33E-06,,
江苏鑫隆线路器材有限公司,存续,2800,金坛区,电气机械和器材制造业,江苏省常州市金坛区金城镇金宜路8号,,119.63853,31.672768,4.04E-06,,
常州沃克光电仪器有限公司,存续,1000,金坛区,仪器仪表制造业,江苏省常州市金坛区兴明西路101号,,119.597897,31.723247,1.44E-06,,
江苏中恒炉业有限公司,存续,1000,金坛区,通用设备制造业,江苏省常州市金坛区金胜东路216号,,119.64434,31.66475,1.44E-06,,
常州嘉丰新材料有限公司,存续,1000,金坛区,橡胶和塑料制品业,江苏省常州市金坛区金胜东路215号,,119.597897,31.723247,1.44E-06,,
江苏迎华精密机械科技有限公司,存续,1000,金坛区,通用设备制造业,江苏省常州市金坛区薛埠镇公园路1号,,119.597897,31.723247,1.44E-06,,
江苏瑞奥减速机械有限公司,存续,1000,金坛区,通用设备制造业,江苏省常州市金坛区华兴路206号,,119.597897,31.723247,1.44E-06,,
常州市金坛区安得兴金属制品有限公司,存续,1000,金坛区,金属制品业,江苏省常州市金坛区薛埠镇工业园区夏霄路1号,,119.645128,31.664687,1.44E-06,,
常州卡夫特机械有限公司,存续,1060,金坛区,通用设备制造业,江苏省常州市金坛区薛埠镇工业园区夏霄路2号,,119.645128,31.664687,1.53E-06,,
常州幸立机械科技有限公司,存续,1500,金坛区,汽车制造业,江苏省常州市金坛区薛埠镇工业园区夏霄路1-5号,,119.649191,31.749375,2.17E-06,,
江苏幸维金属科技有限公司,存续,1775,金坛区,汽车制造业,江苏省常州市金坛区薛埠镇工业园区夏霄路1—5号,,119.64802,31.669926,2.56E-06,,
常州嘉宥柴油机零部件有限公司,存续,1280,金坛区,通用设备制造业,江苏省常州市金坛区薛埠镇工业园区夏霄路8号,,119.642731,31.763857,1.85E-06,,
江苏后肖恒燕新型幕墙材料有限公司,存续,1000,金坛区,金属制品业,江苏省常州市金坛区薛埠镇工业园区曙光南路1号,,119.382381,31.717564,1.44E-06,,
常州华德机械有限公司,存续,1450,金坛区,通用设备制造业,江苏省常州市金坛区指前镇兴标南路58号,,119.645896,31.758567,2.09E-06,,
常州市朗科精密机械有限公司,存续,1000,金坛区,仪器仪表制造业,江苏省常州市金坛区华兴路201号,,119.64957,31.670288,1.44E-06,,
江苏缔成特材科技有限公司,存续,1000,金坛区,橡胶和塑料制品业,江苏省常州市金坛区金胜东路218号,,119.385313,31.7164,1.44E-06,,
常州银登金属制品有限公司,存续,1000,金坛区,金属制品业,江苏省常州市金坛区复兴路8号,,119.597897,31.723247,1.44E-06,,
常州市金坛技鼎精密机械有限公司,存续,1080,金坛区,通用设备制造业,江苏省常州市金坛区金胜东路219号,,119.597897,31.723247,1.56E-06,,
江苏骏稳电源制造有限公司,存续,1000,金坛区,电气机械和器材制造业,江苏省常州市金坛区薛埠镇工业园区凤凰路6-3号,,119.597897,31.723247,1.44E-06,,
常州久泽机械有限公司,存续,1000,金坛区,通用设备制造业,江苏省常州市金坛区薛埠东环一路188号,,119.644618,31.765142,1.44E-06,,
江苏极研模块建筑有限公司,存续,1200,金坛区,金属制品业,江苏省常州市金坛区复兴路7号,,119.652822,31.748223,1.73E-06,,
常州瑞能铝业有限公司,存续,1000,金坛区,金属制品业,江苏省常州市金坛区金胜东路229号,,119.654357,31.747039,1.44E-06,,
常州天易新能源有限公司,存续,1000,金坛区,汽车制造业,江苏省常州市金坛区复兴路3-6号,,119.647552,31.761487,1.44E-06,,
江苏中迪新材料技术有限公司,存续,1000,金坛区,橡胶和塑料制品业,江苏省常州市金坛区华业路139号,,119.654357,31.747039,1.44E-06,,
江苏中煜橡塑科技有限公司,存续,1000,金坛区,橡胶和塑料制品业,江苏省常州市金坛区华业路139号,,119.654357,31.747039,1.44E-06,,
江苏博盟科技有限公司,存续,1000,金坛区,仪器仪表制造业,江苏省常州市金坛区尧塘镇水北迎春路28号,,119.654357,31.747039,1.44E-06,,
常州博瑞汽车电控科技有限公司,存续,1000,金坛区,汽车制造业,江苏省常州市金坛区汇福路666号,,119.654357,31.747039,1.44E-06,,
江苏世博新能源装备有限公司,存续,1000,金坛区,汽车制造业,江苏省常州市金坛区兴明西路59号15号楼,,119.654357,31.747039,1.44E-06,,
江苏金怡仪器科技有限公司,存续,1100,金坛区,仪器仪表制造业,江苏省常州市金坛区金宜公路6公里处北侧,,119.654357,31.747039,1.59E-06,,
常州贞和汽车零部件有限公司,存续,1276,金坛区,汽车制造业,江苏省常州市金坛区兴明西路59号,,119.654357,31.747039,1.84E-06,,
常州华欧照明电器有限公司,存续,1000,金坛区,电气机械和器材制造业,江苏省常州市金坛区迎春路3号,,119.654357,31.747039,1.44E-06,,
江苏鼎荣电缆科技有限公司,存续,2010,金坛区,电气机械和器材制造业,江苏省常州市金坛区柘荡村委工业园4号楼,,119.654357,31.747039,2.90E-06,,
江苏慧丰密封件有限公司,存续,1000,金坛区,汽车制造业,江苏省常州市金坛区尧塘街道迎春村委小吕庄58号,,119.654357,31.747039,1.44E-06,,
江苏嘉源丰机械制造有限公司,存续,1000,金坛区,电气机械和器材制造业,江苏省常州市金坛区汇华路003号,,119.654357,31.747039,1.44E-06,,
常州市金坛海发新型建材有限公司,存续,1000,金坛区,非金属矿物制品业,江苏省常州市金坛区薛埠镇,,119.654357,31.747039,1.44E-06,,
江苏迪迈新材料有限公司,存续,2000,金坛区,橡胶和塑料制品业,江苏省常州市金坛区兴明路26号,,119.660006,31.723457,2.89E-06,,
常州市金坛润泽新型建材有限公司,存续,1500,金坛区,非金属矿物制品业,江苏省常州市金坛区薛埠镇下杖村委镇茅路1号,,119.660006,31.723457,2.17E-06,,
江苏里浦智能科技有限公司,存续,1100,金坛区,汽车制造业,江苏省常州市金坛区迎春路3号,,119.654047,31.748113,1.59E-06,,
常州市易度电动科技有限公司,存续,2000,金坛区,铁路、船舶、航空航天和其他运输设备制造业,江苏省常州市金坛区金胜东路228号,,119.654554,31.74475,2.89E-06,,
伊莎贝棱辉特（常州）电子科技有限公司,存续,4260,金坛区,电气机械和器材制造业,江苏省常州市金坛区鑫城大道2898号,,119.654792,31.748845,6.15E-06,,
江苏库玛新材料有限公司,存续,3000,金坛区,汽车制造业,江苏省常州市金坛经济开发区兴华路048号,,119.652799,31.754309,4.33E-06,,
常州市长江电力机械厂有限公司,存续,1500,金坛区,电气机械和器材制造业,江苏省常州市金坛区兴辰路10号,,119.652799,31.754309,2.17E-06,,
江苏浩发新材料科技有限公司,存续,1000,金坛区,非金属矿物制品业,江苏省常州市金坛区薛埠镇工业园区锅底山路1号,,119.652799,31.754309,1.44E-06,,
常州柏嘉机械加工有限公司,在业,1000,金坛区,通用设备制造业,江苏省常州市金坛区兴河东路56号,,119.652799,31.754309,1.44E-06,,
江苏齐梁轨道交通装备有限公司,存续,1000,金坛区,铁路、船舶、航空航天和其他运输设备制造业,江苏省常州市金坛区华城路1668号,,119.652799,31.754309,1.44E-06,,
凯斯宝玛五金科技（江苏）有限公司,存续,1491,金坛区,金属制品业,江苏省常州市金坛区华城路1668号,,119.654357,31.747039,2.15E-06,,
江苏吉宏自动化设备有限公司,存续,1000,金坛区,仪器仪表制造业,江苏省常州市金坛区华城路1668号,,119.652799,31.754309,1.44E-06,,
江苏鑫颢泰新材料有限公司,存续,1088,金坛区,金属制品业,江苏省常州市金坛区华城路1668号,,119.652799,31.754309,1.57E-06,,
常州九方润德新材料有限公司,存续,1000,金坛区,汽车制造业,江苏省常州市金坛区华城路1668号,,119.649592,31.761938,1.44E-06,,
吉地亚汽车系统（常州）有限公司,存续,3550,金坛区,汽车制造业,江苏省常州市金坛区华城路1668号,,119.654347,31.752486,5.13E-06,,
常州威可特新材料有限公司,存续,1914,金坛区,橡胶和塑料制品业,江苏省常州市金坛区华城路1668号,,119.655756,31.748606,2.76E-06,,
常州增材制造研究院有限公司,存续,1000,金坛区,橡胶和塑料制品业,江苏省常州市金坛区华城路1668号,,119.654347,31.752486,1.44E-06,,
江苏鸿硕工程塑料科技股份有限公司,存续,1000,金坛区,橡胶和塑料制品业,江苏省常州市金坛区华城路1668号,,119.590679,31.817406,1.44E-06,,
常州鸣阳精密材料有限公司,存续,3000,金坛区,非金属矿物制品业,江苏省常州市金坛区华城路1668号,,119.654347,31.752486,4.33E-06,,
江苏安田亚士达机械有限公司,存续,1000,金坛区,通用设备制造业,江苏省常州市金坛区华城路1668号,,119.654347,31.752486,1.44E-06,,
江苏双笑新能源科技有限公司,存续,1050,金坛区,汽车制造业,江苏省常州市金坛区华城路1668号,,119.654294,31.752664,1.52E-06,,
江苏灵湾特种陶瓷科技有限公司,存续,1000,金坛区,非金属矿物制品业,江苏省常州市金坛区华城路1668号,,119.376737,31.720316,1.44E-06,,
德锐福传动系统（常州）有限公司,存续,1000,金坛区,通用设备制造业,江苏省常州市金坛区华城路1668号,,119.64861,31.76533,1.44E-06,,
常州杰美德精密型材有限公司,存续,1000,金坛区,橡胶和塑料制品业,江苏省常州市金坛区华城路1668号,,119.656467,31.748957,1.44E-06,,
江苏元泰建材有限公司,存续,1200,金坛区,非金属矿物制品业,江苏省常州市金坛区尧塘工业园金武路18号,,119.64873,31.765959,1.73E-06,,
常州市鑫辉网具有限公司,存续,1000,金坛区,金属制品业,江苏省常州市金坛区金胜东路236号,,119.657251,31.748045,1.44E-06,,
常州易联电子科技有限公司,存续,2000,金坛区,电气机械和器材制造业,江苏省常州市金坛区华城路1668号3号楼,,119.657741,31.747212,2.89E-06,,
常州申嘉金属制品有限公司,存续,1500,金坛区,金属制品业,江苏省常州市金坛区兴辰路8号,,119.655888,31.752556,2.17E-06,,
常州市哈里路亚户外用品有限公司,存续,2000,金坛区,金属制品业,江苏省常州市金坛区河头镇薛庄村,,119.65472,31.755292,2.89E-06,,
江苏和立工程材料有限公司,存续,3009,金坛区,非金属矿物制品业,江苏省常州市金坛区汇福路10号,,119.655829,31.752778,4.35E-06,,
常州松马动力科技有限公司,存续,1500,金坛区,电气机械和器材制造业,江苏省常州市金坛区河山环路17号,,119.66377,31.72287,2.17E-06,,
常州万诚机械科技有限公司,存续,1200,金坛区,通用设备制造业,江苏省常州市金坛区河山环路15号,,119.66377,31.72287,1.73E-06,,
司达磁电科技（常州）有限公司,存续,43065,金坛区,电气机械和器材制造业,江苏省常州市金坛区河山环路38号,,119.657387,31.752013,6.22E-05,,
江苏一博自动化设备有限公司,存续,1000,金坛区,仪器仪表制造业,江苏省常州市金坛区河山环路7号,,119.656758,31.752896,1.44E-06,,
常州长溢精机有限公司,存续,3828,金坛区,铁路、船舶、航空航天和其他运输设备制造业,江苏省金坛经济开发区汇福路9号,,119.657387,31.752013,5.53E-06,,
江苏众蕾新型建材有限公司,存续,1000,金坛区,非金属矿物制品业,江苏省常州市金坛区河山环路35号,,119.657387,31.752013,1.44E-06,,
莱克勒喷嘴系统（常州）有限公司,在业,3190,金坛区,通用设备制造业,江苏省常州市金坛区德城路99号,,119.657387,31.752013,4.61E-06,,
江苏安利新型建材有限公司,存续,1000,金坛区,非金属矿物制品业,江苏省常州市金坛区河山环路35号,,119.657387,31.752013,1.44E-06,,
江苏优卓诺仪器制造有限公司,存续,1000,金坛区,仪器仪表制造业,江苏省常州市金坛区白塔镇曹庄村6号,,119.656758,31.752896,1.44E-06,,
江苏常凯玻璃有限公司,存续,1000,金坛区,非金属矿物制品业,江苏省常州市金坛区河山环路36号,,119.656443,31.755155,1.44E-06,,
江苏润德精密机械有限公司,存续,1280,金坛区,通用设备制造业,江苏省常州市金坛经济开发区汇福路9号,,119.373478,31.706967,1.85E-06,,
江苏凯兴管道有限公司,存续,1000,金坛区,橡胶和塑料制品业,江苏省常州市金坛区直溪镇井庄村委张家棚188号,,119.653915,31.761425,1.44E-06,,
常州市金坛区博祥建筑材料有限公司,存续,1000,金坛区,非金属矿物制品业,江苏省常州市金坛区汇福路2号,,119.657253,31.754483,1.44E-06,,
江苏大中传动设备有限公司,存续,1080,金坛区,通用设备制造业,江苏省常州市金坛区河山环路32号,,119.656443,31.755155,1.56E-06,,
江苏天广实业有限公司,存续,1088,金坛区,金属制品业,江苏省常州市金坛区金胜东路249号,,119.401783,31.785121,1.57E-06,,
常州双亿自动化科技有限公司,存续,1000,金坛区,仪器仪表制造业,江苏省常州市金坛区河山环路6号,,119.656679,31.757358,1.44E-06,,
江苏春立家具有限公司,存续,2000,金坛区,家具制造业,江苏省常州市金坛区金胜东路249号,,119.401783,31.785121,2.89E-06,,
常州市金坛神湖机电有限公司,存续,3000,金坛区,通用设备制造业,江苏省常州市金坛区龙湖路39号,,119.421659,31.61816,4.33E-06,,
江苏盈讯测控科技有限公司,存续,1000,金坛区,仪器仪表制造业,江苏省常州市金坛区建昌集镇沿河南路8号,,119.652586,31.766792,1.44E-06,,
江苏瑞明新材料科技有限公司,存续,1000,金坛区,橡胶和塑料制品业,江苏省常州市金坛区尧塘镇亿晶路99号,,119.652586,31.766792,1.44E-06,,
江苏登兴塑化有限公司,存续,15065,金坛区,橡胶和塑料制品业,江苏省常州市金坛区建昌镇井庄村,,119.652799,31.754309,2.18E-05,,
江苏顺源航空零部件有限公司,存续,3000,金坛区,铁路、船舶、航空航天和其他运输设备制造业,江苏省常州市金坛区云湖路56号,,119.656597,31.759932,4.33E-06,,
江苏德朗尼工业自动化有限公司,存续,1000,金坛区,通用设备制造业,江苏省常州市金坛区经济开发区河山环路10号,,119.6606,31.751783,1.44E-06,,
中悦汽车部件（江苏）有限公司,存续,3000,金坛区,汽车制造业,江苏省常州市金坛区龙湖路21号,,119.597897,31.723247,4.33E-06,,
江苏万泉金属制品有限公司,存续,1000,金坛区,金属制品业,江苏省常州市金坛区龙湖路10号,,119.639119,31.635977,1.44E-06,,
斯米伽（常州）精密制造有限公司,存续,2000,金坛区,仪器仪表制造业,江苏省常州市金坛区龙湖路45号,,119.659899,31.754756,2.89E-06,,
江苏恒成称重设备有限公司,存续,2000,金坛区,仪器仪表制造业,江苏省常州市金坛区龙湖路1号,,119.652799,31.754309,2.89E-06,,
江苏赛惠斯电器科技有限公司,存续,2000,金坛区,电气机械和器材制造业,江苏省常州市金坛区龙湖路17号,,119.40108,31.789115,2.89E-06,,
江苏喆瑞照明科技有限公司,存续,1380,金坛区,电气机械和器材制造业,江苏省常州市金坛区龙湖路15号,,119.664334,31.677038,1.99E-06,,
常州市金坛利云汽车电机有限公司,存续,3000,金坛区,汽车制造业,江苏省常州市金坛区龙湖路1号,,119.663841,31.74808,4.33E-06,,
常州市科慧汽车电器有限公司,存续,1080,金坛区,汽车制造业,江苏省常州市金坛区龙湖路10号,,119.663841,31.74808,1.56E-06,,
常州帝升重工机械有限公司,存续,1000,金坛区,通用设备制造业,江苏省常州市金坛区华城路1788号,,119.655722,31.768516,1.44E-06,,
江苏朋逸高新材料科技有限公司,存续,3000,金坛区,橡胶和塑料制品业,江苏省常州市金坛区龙湖路8号,,119.583076,31.743332,4.33E-06,,
常州市金坛汤庄电镀有限公司,存续,1500,金坛区,金属制品业,江苏省常州市金坛区亿晶路16号,,119.68259,31.709621,2.17E-06,,
常州市金坛区薛埠顺发采石有限公司,存续,1000,金坛区,非金属矿采选业,江苏省常州市金坛区薛埠镇连山村委建国村,,119.39833,31.79307,1.44E-06,,
江苏保宏金属科技有限公司,存续,1000,金坛区,汽车制造业,江苏省常州市金坛区龙湖路2号,,119.675535,31.722219,1.44E-06,,
常州市金坛区厚松园园林绿化有限公司,存续,1000,金坛区,非金属矿物制品业,江苏省常州市金坛区薛埠镇石马村花茅路8公里处高架桥东侧,,119.597897,31.723247,1.44E-06,,
江苏广锐金属制造有限公司,存续,1068,金坛区,金属制品业,江苏省常州市金坛经济开发区晨风东路666号,,119.675535,31.722219,1.54E-06,,
江苏吉祥吉艺新型幕墙材料有限公司,存续,1000,金坛区,金属制品业,江苏省常州市金坛区薛埠镇石马村致和路10号,,119.675535,31.722219,1.44E-06,,
江苏新顺章机械有限公司,存续,1000,金坛区,通用设备制造业,江苏省常州市金坛经济开发区双龙路12号,,119.597897,31.723247,1.44E-06,,
常州常固土工合成材料有限公司,存续,1080,金坛区,橡胶和塑料制品业,江苏省常州市金坛区指前镇丰产村委马达山村66号,,119.597897,31.723247,1.56E-06,,
常州市金坛华南水泥制品有限公司,在业,1000,金坛区,非金属矿物制品业,江苏省常州市金坛经济开发区河头金尧河南侧东南庄48号,,119.550674,31.759794,1.44E-06,,
常州市宝瑞汽车附件有限公司,存续,1000,金坛区,汽车制造业,江苏省常州市金坛区河山环路22号,,119.545757,31.75512,1.44E-06,,
江苏锋怡精密工具有限公司,存续,1000,金坛区,金属制品业,江苏省常州市金坛经济开发区兴隆北路16-1号,,119.559286,31.765412,1.44E-06,,
常州华英博传动机械有限公司,存续,1500,金坛区,通用设备制造业,江苏省常州市金坛区兴隆北路10号,,119.556388,31.747531,2.17E-06,,
常州智宝能源科技有限公司,存续,1200,金坛区,汽车制造业,江苏省常州市金坛区金龙大道559号,,119.567076,31.769291,1.73E-06,,
江苏赛睿新能源科技有限公司,存续,1000,金坛区,电气机械和器材制造业,江苏省常州市金坛区儒林镇五叶集镇北街1号,,119.56754,31.768552,1.44E-06,,
江苏华苏工业炉制造有限公司,存续,1000,金坛区,通用设备制造业,江苏省常州市金坛区双龙路5号,,119.567756,31.772187,1.44E-06,,
常州吉和智能家具有限公司,存续,1914,金坛区,家具制造业,江苏省常州市金坛区河山环路18号,,119.567756,31.772187,2.76E-06,,
江苏得利再生胶制造有限公司,存续,1050,金坛区,橡胶和塑料制品业,江苏省常州市金坛区尧塘镇新春村1号,,119.567756,31.772187,1.52E-06,,
常州金坛盘固轧石有限公司,存续,2000,金坛区,非金属矿物制品业,江苏省常州市金坛区薛埠镇茅洲路28号,,119.581203,31.760372,2.89E-06,,
江苏傲润塑业科技有限公司,存续,2000,金坛区,橡胶和塑料制品业,江苏省常州市金坛区尧塘镇工业园区经十二路18号,,119.581203,31.760372,2.89E-06,,
江苏宝弘塑业有限公司,存续,1000,金坛区,橡胶和塑料制品业,江苏省常州市金坛区尧塘镇工业区经十二路18号,,119.654357,31.747039,1.44E-06,,
江苏肇风机电设备有限公司,存续,1000,金坛区,电气机械和器材制造业,江苏省常州市金坛区兴华路167号,,119.511758,31.743451,1.44E-06,,
江苏好牧人塑业有限公司,存续,2000,金坛区,橡胶和塑料制品业,江苏省常州市金坛区尧塘镇工业园区经十二路18号,,119.5813,31.787491,2.89E-06,,
常州杰铭新材料科技有限公司,存续,1000,金坛区,橡胶和塑料制品业,江苏省常州市金坛区月湖北路33号,,119.579808,31.741435,1.44E-06,,
江苏澋润数控科技有限公司,存续,1000,金坛区,通用设备制造业,江苏省常州市金坛区珠山路19号,,119.59172,31.761802,1.44E-06,,
江苏艾龙森汽车部件有限公司,存续,2600,金坛区,汽车制造业,江苏省常州市金坛区月湖北路39号,,119.591381,31.773156,3.75E-06,,
江苏航锐科技有限公司,存续,1000,金坛区,铁路、船舶、航空航天和其他运输设备制造业,江苏省常州市金坛区珠山路17号,,119.582962,31.741958,1.44E-06,,
安格诺尔（江苏）智能电气有限公司,存续,3100,金坛区,电气机械和器材制造业,江苏省常州市金坛区尧塘镇亿晶路9号,,119.58975,31.782689,4.48E-06,,
江苏悦马特机械科技有限公司,存续,1000,金坛区,通用设备制造业,江苏省常州市金坛区文景路6号,,119.592211,31.775626,1.44E-06,,
常州拓浦照明科技有限公司,存续,1000,金坛区,电气机械和器材制造业,江苏省常州市金坛区尧塘镇亿晶路9号,,119.597897,31.723247,1.44E-06,,
江苏江南清洁能源研究院有限公司,存续,1000,金坛区,电气机械和器材制造业,江苏省常州市金坛区尧塘镇亿晶路9号,,119.597972,31.764989,1.44E-06,,
江苏宝财自动化装备有限公司,存续,1000,金坛区,仪器仪表制造业,江苏省常州市金坛区文景路1号,,119.597972,31.764989,1.44E-06,,
常州中融能源科技有限公司,存续,10000,金坛区,电气机械和器材制造业,江苏省常州市金坛区临港路9号,,119.597377,31.78045,1.44E-05,,
江苏晨洋电缆有限公司,存续,15800,金坛区,电气机械和器材制造业,江苏省常州市金坛区金城镇白塔路1459号,,119.595244,31.743199,2.28E-05,,
安普科技有限公司,存续,10000,金坛区,仪器仪表制造业,江苏省常州市金坛区金城镇西环二路16号,,119.60202,31.773251,1.44E-05,,
常州金源永利达电子科技有限公司,存续,5455,金坛区,仪器仪表制造业,江苏省常州市金坛区金城镇西环二路16号,,119.595932,31.742802,7.88E-06,,
常州中晟智能制造有限公司,存续,5000,金坛区,汽车制造业,江苏省常州市金坛区荆元路77号,,119.595932,31.742802,7.22E-06,,
通发新材料有限公司,存续,5000,金坛区,非金属矿物制品业,江苏省常州市金坛区丹荆路7号,,119.595932,31.742802,7.22E-06,,
江苏润龙电力器材有限公司,存续,5160,金坛区,电气机械和器材制造业,江苏省常州市金坛区金城镇白塔路99号,,119.595932,31.742802,7.45E-06,,
江苏易成电力器材有限公司,存续,13766,金坛区,电气机械和器材制造业,江苏省常州市金坛区金城镇工业园区红山路1号,,119.595932,31.742802,1.99E-05,,
江苏星云谷新能源汽车有限公司,存续,6000,金坛区,汽车制造业,江苏省常州市金坛区盐港中路69号9幢,,119.595932,31.742802,8.66E-06,,
常州中晟新能源科技有限公司,存续,6380,金坛区,铁路、船舶、航空航天和其他运输设备制造业,江苏省常州市金坛区盐港中路69号9幢,,119.601069,31.742548,9.21E-06,,
江苏派崴智能科技有限公司,存续,5000,金坛区,仪器仪表制造业,江苏省常州市金坛区金城镇盐港中路9号,,119.597603,31.735522,7.22E-06,,
江苏一筑一城建设工程有限公司,存续,5000,金坛区,非金属矿物制品业,江苏省常州市金坛区盐港中路69号9幢,,119.58677,31.80663,7.22E-06,,
江苏忠大新能源科技有限公司,存续,20000,金坛区,汽车制造业,江苏省常州市金坛区盐港中路69号9幢,,119.6012,31.795884,2.89E-05,,
江苏康泰热交换设备工程有限公司,存续,21093050066,金坛区,电气机械和器材制造业,江苏省常州市金坛区丹阳门北路98号,,119.6012,31.795884,3.05E+01,,
江苏金榆科技集团有限公司,存续,5000,金坛区,汽车制造业,江苏省常州市金坛区金城镇丹阳门北路张角山10号,,119.6012,31.795884,7.22E-06,,
江苏天辉锂电池有限公司,存续,30000,金坛区,电气机械和器材制造业,江苏省常州市金坛区良常路86号,,119.6012,31.795884,4.33E-05,,
鹏辉能源常州动力锂电有限公司,存续,20000,金坛区,电气机械和器材制造业,江苏省常州市金坛区良常路86号,,119.611809,31.76529,2.89E-05,,
延锋轻质复合材料（常州）有限公司,存续,8000,金坛区,橡胶和塑料制品业,江苏省常州市金坛区华城路1668号(经营场所:常州市金坛区华业路139号车间九一层),,119.610608,31.751899,1.16E-05,,
江苏皇威动力有限公司,存续,6000,金坛区,通用设备制造业,江苏省常州市金坛区金城镇后阳集镇后阳街71号,,119.610608,31.751899,8.66E-06,,
江苏领越电气有限公司,存续,5058,金坛区,电气机械和器材制造业,江苏省常州市金坛区薛埠镇工业园区东环一路118号,,119.613594,31.753505,7.30E-06,,
江苏帝姆斯制冷设备有限公司,存续,5050,金坛区,通用设备制造业,江苏省常州市金坛区华城中路1668号,,119.45433,31.795067,7.29E-06,,
常州鑫塑管业科技有限公司,存续,5168,金坛区,橡胶和塑料制品业,江苏省常州市金坛区金城中路632号,,119.501115,31.81957,7.46E-06,,
常州中达建材有限公司,存续,5000,金坛区,非金属矿物制品业,江苏省常州市金坛区金城镇金宜路28号,,119.468507,31.78,7.22E-06,,
江苏源力汽车内饰件有限公司,存续,9518,金坛区,汽车制造业,江苏省常州市金坛区金城镇白塔工业集中区金宜路1号,,119.623311,31.750199,1.37E-05,,
巍捷尔机床（中国）有限公司,存续,6390,金坛区,通用设备制造业,江苏省常州市金坛区华城中路168号,,119.597897,31.723247,9.23E-06,,
常州京西汽车电子科技有限公司,存续,5000,金坛区,汽车制造业,江苏省常州市金坛区华城中路168号,,119.464787,31.780432,7.22E-06,,
卡迈锡精密成形（江苏）有限公司,存续,6380,金坛区,汽车制造业,江苏省常州市金坛区华城中路168号,,119.62821,31.753363,9.21E-06,,
迈恩德（中国）电子有限公司,存续,10000,金坛区,汽车制造业,江苏省常州市金坛区华城中路168号,,119.628302,31.751498,1.44E-05,,
江苏铭创互联幕墙新材料有限公司,存续,5188,金坛区,非金属矿物制品业,江苏省常州市金坛区华城中路168号,,119.628265,31.749895,7.49E-06,,
雷诺德（中国）传动产品有限公司,存续,7656,金坛区,通用设备制造业,江苏省常州市金坛区华城中路168号,,119.629123,31.747367,1.11E-05,,
江苏百冠汽车配件有限公司,存续,12760,金坛区,汽车制造业,江苏省常州市金坛区晨风路877号,,119.634693,31.74402,1.84E-05,,
常州市金坛区国安汽车工业有限公司,存续,100000,金坛区,汽车制造业,江苏省常州市金坛区东城宜景苑7-110、210号,,119.46018,31.781849,1.44E-04,,
赫伯陶瓷材料有限公司,存续,20000,金坛区,非金属矿物制品业,江苏省常州市金坛区晨风路61号,,119.458843,31.777019,2.89E-05,,
常州金坛鑫隆防水塑胶制品有限公司,存续,10158,金坛区,橡胶和塑料制品业,江苏省常州市金坛区金宜路8号,,119.458843,31.777019,1.47E-05,,
耀玻（常州）车辆科技有限公司,存续,5000,金坛区,铁路、船舶、航空航天和其他运输设备制造业,江苏省常州市金坛区金湖路998号,,119.463451,31.738925,7.22E-06,,
江苏智信新能源车辆科技有限公司,存续,5000,金坛区,汽车制造业,江苏省常州市金坛区金湖路998号,,119.630055,31.742918,7.22E-06,,
江苏经纬宏博汽车零部件股份有限公司,存续,5000,金坛区,汽车制造业,江苏省常州市金坛区金湖路998号,,119.461541,31.793149,7.22E-06,,
金坛柴油机常州有限公司,存续,509122,金坛区,通用设备制造业,江苏省常州市金坛区华城东路1号,,119.63427,31.743114,7.35E-04,,
江苏天由发展有限公司,存续,5000,金坛区,仪器仪表制造业,江苏省江苏省常州市金坛区华城东路188号,,119.635361,31.74785,7.22E-06,,
江苏乾锦工程材料有限公司,存续,5000,金坛区,非金属矿物制品业,江苏省常州市金坛区晨风路188号,,119.454873,31.788488,7.22E-06,,
英格索兰（常州）工具有限公司,存续,9570,金坛区,通用设备制造业,江苏省江苏省常州市金坛区晨风路190号,,119.452912,31.781375,1.38E-05,,
江苏金坛汽车工业有限公司,存续,79000,金坛区,汽车制造业,江苏省常州市金坛区金坛大道79号,,119.638828,31.744353,1.14E-04,,
江苏金坛钱资湖电动汽车有限公司,存续,30000,金坛区,汽车制造业,江苏省常州市金坛区金坛大道79号,,119.638828,31.744353,4.33E-05,,
常州而今新材料科技有限公司,存续,8600,金坛区,电气机械和器材制造业,江苏省常州市金坛区直溪镇建昌集镇登建公路北,,119.641153,31.747614,1.24E-05,,
江苏沛丰绿建工程科技有限公司,存续,10000,金坛区,非金属矿物制品业,江苏省常州市金坛区金沙大道18号,,119.456512,31.80021,1.44E-05,,
江苏顺泽金属制品科技有限公司,存续,5588,金坛区,金属制品业,江苏省常州市金坛经济开发区华兴路1号,,119.643507,31.755895,8.07E-06,,
江苏火禾新能源发展有限公司,存续,6000,金坛区,电气机械和器材制造业,江苏省常州市金坛区直溪镇工业集中区直溪大道18号,,119.639131,31.733461,8.66E-06,,
江苏兆维塑料科技有限公司,存续,5000,金坛区,橡胶和塑料制品业,江苏省常州市金坛区兴业大道6号,,119.533068,31.680989,7.22E-06,,
江苏威龙新能源汽车有限公司,存续,11500,金坛区,汽车制造业,江苏省常州市金坛区直溪镇工业集中区横五路6号,,119.644726,31.751281,1.66E-05,,
常州宏大太阳能科技有限公司,存续,5000,金坛区,电气机械和器材制造业,江苏省常州市金坛经济开发区中兴路38号,,119.633174,31.723479,7.22E-06,,
江苏澳蓝特机械有限公司,存续,6380,金坛区,通用设备制造业,江苏省常州市金坛区中兴路86号,,119.639131,31.733461,9.21E-06,,
常州市常安门业有限公司,存续,5000,金坛区,金属制品业,江苏省常州市金坛区经济开发区中兴路62号,,119.647691,31.756152,7.22E-06,,
江苏斯威克新材料股份有限公司,存续,327653846,金坛区,橡胶和塑料制品业,江苏省常州市金坛区直溪镇工业集中区直东路68号,,119.646411,31.748217,4.73E-01,,
常州冠晟塑胶有限公司,存续,5168,金坛区,橡胶和塑料制品业,江苏省常州市金坛区恒泰路3号,,119.647816,31.748123,7.46E-06,,
科普费尔（常州）传动技术有限公司,存续,10650,金坛区,汽车制造业,江苏省江苏省常州市金坛经济开发区中兴路56号,,119.641944,31.731463,1.54E-05,,
江苏中翔能源有限公司,存续,15000,金坛区,电气机械和器材制造业,江苏省常州市金坛区华城路316号,,119.641944,31.731463,2.17E-05,,
常州斯威克光伏新材料有限公司,存续,10000,金坛区,电气机械和器材制造业,江苏省常州市金坛区直溪镇工业园区直里路8号,,119.641944,31.731463,1.44E-05,,
江苏遍球新能源汽车科技有限公司,存续,11800,金坛区,汽车制造业,江苏省常州市金坛区直溪镇工业园区水南路8号,,119.643144,31.733228,1.70E-05,,
东方日升（常州）进出口有限公司,存续,10000,金坛区,电气机械和器材制造业,江苏省常州市金坛区直溪镇工业集中区水南路1号,,119.464741,31.737637,1.44E-05,,
东方日升（常州）新能源有限公司,存续,250000,金坛区,电气机械和器材制造业,江苏省常州市金坛区直溪镇工业集中区水南路1号,,119.649037,31.743811,3.61E-04,,
常州美亚塑料制品有限公司,存续,49764,金坛区,橡胶和塑料制品业,江苏省常州市金坛区华城路222号,,119.652799,31.754309,7.19E-05,,
江苏常峰电力科技股份有限公司,存续,10000,金坛区,电气机械和器材制造业,江苏省常州市金坛区南二环东路88号,,119.446206,31.730583,1.44E-05,,
江苏神力塑业有限公司,存续,10000,金坛区,橡胶和塑料制品业,江苏省常州市金坛区金武路8号,,119.446206,31.730583,1.44E-05,,
常州华盛恒能光电有限公司,存续,310068,金坛区,非金属矿物制品业,江苏省金坛市华城路316号,,119.43998,31.730152,4.48E-04,,
常州美晶太阳能材料有限公司,存续,313258,金坛区,非金属矿物制品业,江苏省金坛市开发区金胜东路166号,,119.651152,31.744106,4.52E-04,,
江苏金坛晨林经济技术发展有限公司,在业,100000,金坛区,汽车制造业,江苏省常州市金坛区朱林镇晨风路18号,,119.654357,31.747039,1.44E-04,,
常州金坛泰明光伏有限公司,存续,10000,金坛区,电气机械和器材制造业,江苏省常州市金坛区直溪镇工业集中区直东路8号,,119.446206,31.730583,1.44E-05,,
江苏中宇电力器材有限公司,在业,6800,金坛区,电气机械和器材制造业,江苏省常州市金坛区复兴路8号,,119.639346,31.719687,9.82E-06,,
常州金坛诚辉机械制造有限公司,存续,5000,金坛区,通用设备制造业,江苏省常州市金坛区河头镇工业园区常溧公路许城段南侧,,119.654357,31.747039,7.22E-06,,
江苏华盛天龙光电设备股份有限公司,存续,20000,金坛区,电气机械和器材制造业,江苏省江苏省金坛经济开发区华城路318号,,119.654357,31.747039,2.89E-05,,
乐庭电线工业（常州）有限公司,存续,5147609596,金坛区,电气机械和器材制造业,江苏省常州市金坛区南二环东路1699号,,119.464741,31.737637,7.43E+00,,
中泽德盛精密组件（江苏）有限公司,存续,10000,金坛区,汽车制造业,江苏省常州市金坛区复兴路299号,,119.657387,31.752013,1.44E-05,,
江苏龙泉太阳能科技有限公司,存续,8800,金坛区,电气机械和器材制造业,江苏省常州市金坛区直溪镇直溪集镇振兴南路316号,,119.464741,31.737637,1.27E-05,,
江苏通特智能装备制造有限公司,存续,5000,金坛区,通用设备制造业,江苏省常州市金坛区中兴路89号,,119.441816,31.728289,7.22E-06,,
江苏天顺稀土电机科技有限公司,存续,65156,金坛区,电气机械和器材制造业,江苏省金坛经济开发区中兴路89号,,119.441816,31.728289,9.41E-05,,
常州市金坛广顺钢构有限公司,存续,5000,金坛区,金属制品业,江苏省常州市金坛经济开发区中兴路89号,,119.441816,31.728289,7.22E-06,,
京晟（常州）汽车零部件有限公司,存续,5000,金坛区,汽车制造业,江苏省常州市金坛经济开发区晨风路968号,,119.652799,31.754309,7.22E-06,,
江苏金洋造船有限公司,存续,16800,金坛区,铁路、船舶、航空航天和其他运输设备制造业,江苏省常州市金坛区金沙大道598号,,119.653454,31.733154,2.43E-05,,
常州利腾机械有限公司,存续,5000,金坛区,通用设备制造业,江苏省常州市金坛区金胜东路222号,,119.597897,31.723247,7.22E-06,,
常州博瑞油泵油嘴有限公司,存续,1136363,金坛区,通用设备制造业,江苏省常州市金坛区汇福路666号,,119.597897,31.723247,1.64E-03,,
爱思开电池材料科技（江苏）有限公司,存续,159500,金坛区,电气机械和器材制造业,江苏省常州市金坛区复兴南路17号,,119.597897,31.723247,2.30E-04,,
江苏捷尔特精密管业有限公司,存续,5000,金坛区,金属制品业,江苏省常州市金坛区复兴南路18号,,119.440239,31.726294,7.22E-06,,
贝特瑞（江苏）新能源材料有限公司,在业,70000,金坛区,电气机械和器材制造业,江苏省常州市金坛区复兴南路519号,,119.660315,31.744424,1.01E-04,,
江苏华拓智能终端科技有限公司,存续,30326,金坛区,汽车制造业,江苏省常州市金坛区朱林镇菜园路88号,,119.652008,31.721288,4.38E-05,,
江苏嘉寓门窗幕墙有限公司,存续,7800,金坛区,金属制品业,江苏省常州市金坛区华城路1588号,,119.633992,31.698004,1.13E-05,,
江苏凯键金属制品科技有限公司,存续,6888,金坛区,金属制品业,江苏省常州市金坛区兴河东路18号,,119.633992,31.698004,9.95E-06,,
珍晟工程机械（常州）有限公司,存续,19140,金坛区,通用设备制造业,江苏省常州市金坛区河山环路59号,,119.432437,31.734269,2.76E-05,,
江苏协辰家具制造有限公司,存续,5018,金坛区,家具制造业,江苏省常州市金坛区河山环路20号,,119.661109,31.738793,7.25E-06,,
江苏百为智能家具有限公司,存续,5018,金坛区,家具制造业,江苏省常州市金坛区河山环路16号,,119.597897,31.723247,7.25E-06,,
江苏三能动力总成有限公司,存续,40000,金坛区,汽车制造业,江苏省常州市金坛区科教路97号,,119.597897,31.723247,5.78E-05,,
常州金坛徽林汽车部件有限公司,存续,10000,金坛区,汽车制造业,江苏省常州市金坛区朱林镇龙溪大道099号,,119.597897,31.723247,1.44E-05,,
江苏科诺汽车部件有限公司,存续,5000,金坛区,汽车制造业,江苏省常州市金坛区朱林镇龙溪大道209号,,119.597897,31.723247,7.22E-06,,
江苏应天光电科技有限公司,存续,5000,金坛区,电气机械和器材制造业,江苏省常州市金坛区朱林镇龙溪大道99号,,119.634616,31.690418,7.22E-06,,
同方威视科技江苏有限公司,存续,36000,金坛区,仪器仪表制造业,江苏省常州市金坛区科教路69号,,119.634174,31.684985,5.20E-05,,
江苏集大钢结构有限公司,存续,5800,金坛区,金属制品业,江苏省常州市金坛经济开发区兴华路20号,,119.635303,31.689399,8.38E-06,,
中策橡胶（金坛）有限公司,存续,30000,金坛区,橡胶和塑料制品业,江苏省常州市金坛区华城路1668号,,119.597897,31.723247,4.33E-05,,
籁斯汽车零部件（江苏）有限公司,存续,24244,金坛区,汽车制造业,江苏省常州市金坛区华城路1668号,,119.66377,31.72287,3.50E-05,,
常州艾迪信轴承制造有限公司,存续,6380,金坛区,通用设备制造业,江苏省常州市金坛区华城路1668号,,119.671275,31.726767,9.21E-06,,
红创包装（江苏）有限公司,存续,30000,金坛区,橡胶和塑料制品业,江苏省常州市金坛区华城路1668号,,119.597897,31.723247,4.33E-05,,
江苏星塑源塑业科技有限公司,存续,5000,金坛区,橡胶和塑料制品业,江苏省常州市金坛区朱林镇金西工业园永新南路26号,,119.414466,31.731045,7.22E-06,,
江苏中实新能源有限公司,存续,10000,金坛区,电气机械和器材制造业,江苏省常州市金坛区朱林镇永兴南路992号,,119.622376,31.7133,1.44E-05,,
世纪新舟江苏智能科技有限公司,存续,300000,金坛区,仪器仪表制造业,江苏省常州市金坛区朱林镇永兴南路999-1号,,119.62275,31.73167,4.33E-04,,
爱派尔（常州）数控科技有限公司,在业,5000,金坛区,通用设备制造业,江苏省常州市金坛区河山环路15号,,119.631294,31.723327,7.22E-06,,
埃马克（中国）机械有限公司,在业,4.76E+11,金坛区,通用设备制造业,江苏省江苏省金坛经济开发区南二环东路2888号,,119.631294,31.723327,6.87E+02,,
常州英利新能源有限公司,存续,10000,金坛区,电气机械和器材制造业,江苏省常州市金坛区朱林镇金西工业园龙溪大道188号,,119.622751,31.733463,1.44E-05,,
江苏福坛车桥科技有限公司,存续,23000,金坛区,汽车制造业,江苏省常州市金坛区南二环东路2889号,,119.633174,31.723479,3.32E-05,,
常州剑湖智能仪器仪表有限公司,存续,5000,金坛区,仪器仪表制造业,江苏省常州市金坛区双龙路18号,,119.630461,31.733061,7.22E-06,,
极马自动化（常州）有限公司,存续,5104,金坛区,仪器仪表制造业,江苏省常州市金坛区鑫城大道2898号,,119.631644,31.732682,7.37E-06,,
江苏凯卓威传动技术有限公司,存续,10000,金坛区,通用设备制造业,江苏省常州市金坛区鑫城大道2898号,,119.631644,31.732682,1.44E-05,,
丰峦实业（常州）有限公司,存续,13000,金坛区,汽车制造业,江苏省常州市金坛区鑫城大道2898号,,119.631961,31.733129,1.88E-05,,
常州亿晶光电科技有限公司,存续,2129461116,金坛区,电气机械和器材制造业,江苏省常州市金坛区尧塘镇金武路18号,,119.605974,31.727413,3.08E+00,,
江苏金坛长荡湖实业有限公司,存续,50000,金坛区,汽车制造业,江苏省常州市金坛区科教路99号,,119.610534,31.739689,7.22E-05,,
大乘汽车集团有限公司,存续,350000,金坛区,汽车制造业,江苏省常州市金坛区科教路99号,,119.611667,31.740208,5.05E-04,,
常州金武汽车工业有限公司,存续,10000,金坛区,汽车制造业,江苏省常州市金坛区科教路99号,,119.611667,31.740208,1.44E-05,,
江苏金坛大乘汽车工程研究院有限公司,存续,5000,金坛区,汽车制造业,江苏省常州市金坛区科教路99号,,119.619422,31.586178,7.22E-06,,
江苏金坛绿能新能源科技有限公司,存续,16000,金坛区,汽车制造业,江苏省常州市金坛区科教路99号,,119.624144,31.742566,2.31E-05,,
常州众智汽车科技有限公司,存续,15000,金坛区,汽车制造业,江苏省常州市金坛区科教路99号,,119.624144,31.742566,2.17E-05,,
北电爱思特（江苏）科技有限公司,存续,250000,金坛区,电气机械和器材制造业,江苏省常州市金坛区汇福路688号,,119.624144,31.742566,3.61E-04,,
常州华科瑞新能源汽车零部件合伙企业（有限合伙）,存续,25200,金坛区,汽车制造业,江苏省常州市金坛区明湖路365号,,119.641944,31.731463,3.64E-05,,
凡登（常州）新型金属材料技术有限公司,存续,11803,金坛区,金属制品业,江苏省常州市金坛区金西开发区鹏程路66号,,119.600363,31.730626,1.70E-05,,
常州精测新能源技术有限公司,存续,5000,金坛区,汽车制造业,江苏省常州市金坛区金龙大道563号,,119.627777,31.742793,7.22E-06,,
常州永臻智能新幕建筑系统科技有限公司,存续,10000,金坛区,电气机械和器材制造业,江苏省常州市金坛区月湖北路99号,,119.630055,31.742918,1.44E-05,,
常州联益光学有限公司,存续,10000,金坛区,仪器仪表制造业,江苏省常州市金坛区金龙大道563号,,119.630055,31.742918,1.44E-05,,
中创新航科技股份有限公司,存续,1506456558,金坛区,汽车制造业,江苏省常州市金坛区江东大道1号,,119.619791,31.745455,2.18E+00,,
江苏常丰精密科技有限公司,存续,20000,金坛区,汽车制造业,江苏省常州市金坛区明湖路399号,,119.638918,31.739552,2.89E-05,,
贝特瑞（江苏）新材料科技有限公司,在业,82500,金坛区,电气机械和器材制造业,江苏省常州市金坛区江东大道519号,,119.638918,31.739552,1.19E-04,,
金保利（江苏）新能源科技有限公司,存续,6000,金坛区,汽车制造业,江苏省常州市金坛区华业路95号,,119.638918,31.739552,8.66E-06,,
江苏信维智能汽车互联科技有限公司,存续,10000,金坛区,汽车制造业,江苏省常州市金坛区水北路218号,,119.638918,31.739552,1.44E-05,,
常州嘉霖灯饰有限公司,存续,20416,金坛区,电气机械和器材制造业,江苏省常州市金坛区亿晶路16号,,119.628161,31.745964,2.95E-05,,
江苏沪安科技有限公司,存续,10800,金坛区,电气机械和器材制造业,江苏省常州市金坛区尧塘街道万新村委新庄组219号,,119.641392,31.739693,1.56E-05,,
索拉特特种玻璃（江苏）股份有限公司,存续,7880,金坛区,非金属矿物制品业,江苏省常州市金坛区尧塘镇亿晶路8号,,119.641392,31.739693,1.14E-05,,
常州易控汽车电子股份有限公司,存续,713602,金坛区,汽车制造业,江苏省常州市金坛区金龙大道567号,,119.62883,31.745879,1.03E-03,,
江苏亚邦矿业有限公司,存续,30000,金坛区,非金属矿采选业,江苏省常州市金坛区薛埠镇花山村玄武路168号,,119.62883,31.745879,4.33E-05,,
江苏中广核金沃电子科技有限公司,存续,6300,金坛区,电气机械和器材制造业,江苏省常州市金坛区茅山大道888号,,119.613818,31.746425,9.10E-06,,
江苏尧塘花木市场有限公司,存续,3000,金坛区,非金属矿物制品业,江苏省常州市金坛区尧塘镇金武路8号,,119.628111,31.746632,4.33E-06,,
常州冠荣新型包装材料有限公司,存续,1000,金坛区,橡胶和塑料制品业,江苏省常州市金坛区亿晶路198号,,119.625522,31.747375,1.44E-06,,
常州倍捷塑业科技有限公司,存续,1200,金坛区,橡胶和塑料制品业,江苏省常州市金坛区亿晶路198号,,119.649164,31.732207,1.73E-06,,
常州市国电聚龙电气技术有限公司,存续,1000,金坛区,电气机械和器材制造业,江苏省常州市金坛区南二环东路1699号,,119.620465,31.748441,1.44E-06,,
常州市沃科科技有限公司,存续,2000,金坛区,橡胶和塑料制品业,江苏省常州市金坛区南二环东路1699号,,119.61624,31.748569,2.89E-06,,
江苏科泰绝热新材料有限公司,存续,3530,金坛区,橡胶和塑料制品业,江苏省常州市金坛区南二环东路1698号,,119.622985,31.748589,5.10E-06,,
江苏捷尔特智能家具有限公司,存续,1000,金坛区,家具制造业,江苏省常州市金坛区复兴南路18号,,119.623639,31.748614,1.44E-06,,
中成（江苏）集成房屋科技有限公司,存续,1000,金坛区,金属制品业,江苏省常州市金坛区汇贤南路2号C幢,,119.625224,31.748654,1.44E-06,,
江苏中谨精密机械有限公司,存续,1000,金坛区,通用设备制造业,江苏省常州市金坛区汇贤南路3号物管楼,,119.59237,31.719918,1.44E-06,,
